City_ID,City,Lat,Lng,Max Temp,Humidity,Cloudiness,Wind Speed,Country,Date
0,edinburgh of the seven seas,-37.0676,-12.3116,11.58,63,3,2.49,SH,1729042721
1,port-aux-francais,-49.35,70.2167,0.92,66,74,16.03,TF,1729042723
2,mayya,61.7333,130.2811,-2.22,74,50,1.44,RU,1729042724
3,saipan,15.1355,145.701,30.39,79,40,0.0,MP,1729042725
4,floro,61.5996,5.0328,9.98,71,100,9.26,NO,1729042726
5,cherepovets,59.1333,37.9,4.53,89,96,3.2,RU,1729042727
6,ust'-ordynskiy,52.805,104.7508,-0.71,66,89,1.42,RU,1729042728
7,gadzhiyevo,69.2551,33.3362,2.44,86,7,7.21,RU,1729042730
8,albany,42.6001,-73.9662,6.0,78,53,5.82,US,1729042519
9,puerto natales,-51.7236,-72.4875,4.3,88,30,1.89,CL,1729042732
10,bethel,41.3712,-73.414,7.53,76,6,0.45,US,1729042733
11,tiksi,71.6872,128.8694,-14.01,90,84,3.29,RU,1729042734
12,ancud,-41.8697,-73.8203,8.47,85,98,2.09,CL,1729042735
13,erenhot,43.6475,111.9767,11.39,52,0,2.9,CN,1729042736
14,utrik,11.2278,169.8474,28.6,79,95,7.25,MH,1729042737
15,ravar,31.2656,56.8055,20.71,23,5,1.44,IR,1729042536
16,waitangi,-43.9535,-176.5597,11.01,70,68,3.13,NZ,1729042740
17,west island,-12.1568,96.8225,26.99,83,75,6.69,CC,1729042741
18,adamstown,-25.066,-130.1015,21.34,87,97,6.96,PN,1729042742
19,fort bragg,35.139,-79.006,15.75,71,100,1.34,US,1729042743
20,blackmans bay,-43.0167,147.3167,19.29,45,75,3.13,AU,1729042744
21,ebolowa,2.9,11.15,19.54,100,100,0.73,CM,1729042745
22,thompson,55.7435,-97.8558,6.09,70,40,2.57,CA,1729042746
23,zambezi,-13.5432,23.1047,18.75,72,12,1.89,ZM,1729042747
24,afaahiti,-17.75,-149.2833,23.57,74,54,3.24,PF,1729042749
25,martapura,-3.4167,114.85,26.05,89,40,3.6,ID,1729042750
26,tazovsky,67.4667,78.7,-10.97,76,90,4.69,RU,1729042563
27,stanley,54.868,-1.6985,11.27,94,75,1.54,GB,1729042467
28,aykhal,66.0,111.5,-15.27,95,100,10.94,RU,1729042753
29,port macquarie,-31.4333,152.9167,18.37,74,100,0.89,AU,1729042754
30,rio grande,-32.035,-52.0986,18.58,97,70,2.34,BR,1729042755
31,isafjordur,66.0755,-23.124,1.42,95,99,3.31,IS,1729042756
32,college,64.8569,-147.8028,0.99,79,100,1.54,US,1729042757
33,alaghsas,17.0187,8.0168,29.63,14,5,4.33,NE,1729042758
34,lautoka,-17.6167,177.4667,26.92,78,75,2.57,FJ,1729042760
35,talnakh,69.4865,88.3972,-19.8,97,32,0.77,RU,1729042761
36,languyan,5.2618,120.0807,30.31,67,90,0.35,PH,1729042763
37,acapulco de juarez,16.8634,-99.8901,28.9,74,40,4.63,MX,1729042533
38,ilulissat,69.2167,-51.1,-2.99,63,100,7.72,GL,1729042765
39,bilibino,68.0546,166.4372,-7.79,85,100,1.26,RU,1729042767
40,cibitoke,-2.8833,29.25,17.26,83,82,1.51,BI,1729042768
41,grytviken,-54.2811,-36.5092,2.75,84,100,3.8,GS,1729042769
42,thunder bay,48.4001,-89.3168,1.99,80,0,3.09,CA,1729042687
43,kiruna,67.8557,20.2251,-4.49,93,100,4.63,SE,1729042771
44,rumyantsevo,55.9728,36.5342,5.45,92,100,1.85,RU,1729042772
45,manokwari,-0.8667,134.0833,25.89,85,100,4.64,ID,1729042502
46,keflavik,64.0049,-22.5624,5.24,93,100,5.14,IS,1729042774
47,whitehorse,60.7161,-135.0538,4.43,75,75,2.06,CA,1729042698
48,port mathurin,-19.6833,63.4167,23.15,74,100,6.35,MU,1729042777
49,bubaque,11.2833,-15.8333,27.31,77,99,2.68,GW,1729042778
50,invercargill,-46.4,168.35,12.79,60,1,2.24,NZ,1729042779
51,farkhar,36.5729,69.8578,10.28,87,100,1.41,AF,1729042780
52,harstad,68.799,16.5293,4.53,96,100,5.81,NO,1729042781
53,morden,49.1919,-98.1014,5.92,52,73,2.57,CA,1729042782
54,enewetak,11.3474,162.3373,28.24,80,100,4.49,MH,1729042783
55,flying fish cove,-10.4217,105.6791,26.82,73,20,4.63,CX,1729042784
56,qaqortoq,60.7167,-46.0333,0.22,86,37,0.51,GL,1729042785
57,jamestown,42.097,-79.2353,7.23,83,40,3.6,US,1729042521
58,goderich,43.7501,-81.7165,7.18,76,100,6.17,CA,1729042571
59,kingston,17.997,-76.7936,27.53,83,20,2.57,JM,1729042146
60,port elizabeth,-33.918,25.5701,16.16,77,0,10.29,ZA,1729042791
61,pizarro,4.9533,-77.366,24.57,86,100,1.31,CO,1729042799
62,freetown,8.484,-13.2299,24.65,88,7,3.02,SL,1729042800
63,osh,40.5151,72.8083,7.36,93,100,0.0,KG,1729042801
64,general villegas,-35.0328,-63.0125,16.74,76,1,2.04,AR,1729042803
65,yellowknife,62.456,-114.3525,4.29,99,75,3.6,CA,1729042805
66,vadso,70.0744,29.7487,0.09,86,14,5.14,NO,1729042806
67,panaba,21.2833,-88.2667,24.09,93,4,3.06,MX,1729042807
68,samfya,-11.3649,29.5565,19.98,75,100,2.0,ZM,1729042808
69,kibiya,11.5263,8.6623,23.9,66,41,3.14,NG,1729042813
70,fale old settlement,-9.3852,-171.2468,27.88,77,32,2.95,TK,1729042816
71,ribeira grande,38.5167,-28.7,18.76,71,100,2.24,PT,1729042817
72,petropavlovsk-kamchatsky,53.0452,158.6483,7.33,61,0,4.0,RU,1729042819
73,punta arenas,-53.15,-70.9167,6.06,65,20,2.57,CL,1729042821
74,el calafate,-50.3408,-72.2768,5.96,85,100,3.19,AR,1729042824
75,hermanus,-34.4187,19.2345,12.23,84,0,6.64,ZA,1729042825
76,sao felix do xingu,-6.6447,-51.995,22.58,92,91,0.89,BR,1729042826
77,san ignacio,17.1561,-89.0714,26.08,89,0,0.0,BZ,1729042827
78,destin,30.3935,-86.4958,21.11,59,100,4.12,US,1729042828
79,ripoll,42.2006,2.1903,16.0,93,54,1.79,ES,1729042829
80,ghanzi,-21.5667,21.7833,21.17,51,80,6.86,BW,1729042831
81,tura,25.5198,90.2201,23.62,87,0,0.96,IN,1729042832
82,taulaga,-11.0553,-171.0883,27.46,79,79,6.38,AS,1729042833
83,hithadhoo,-0.6,73.0833,28.45,74,19,5.38,MV,1729042834
84,ushuaia,-54.8,-68.3,5.81,61,40,9.77,AR,1729042715
85,wailua homesteads,22.0669,-159.378,28.44,76,40,7.72,US,1729042836
86,warrnambool,-38.3833,142.4833,21.74,62,100,6.0,AU,1729042837
87,havana,23.133,-82.383,25.29,94,75,1.03,CU,1729042832
88,hawaiian paradise park,19.5933,-154.9731,27.15,73,75,2.57,US,1729042841
89,porto novo,6.4965,2.6036,26.9,88,98,2.42,BJ,1729042842
90,nogliki,51.8333,143.1667,3.63,82,100,10.39,RU,1729042843
91,dudinka,69.4058,86.1778,-19.16,98,14,2.53,RU,1729042844
92,constantia,44.1833,28.65,11.38,78,76,9.62,RO,1729042845
93,howard springs,-12.497,131.047,30.49,79,62,1.92,AU,1729042846
94,santa terezinha,-29.9002,-50.0904,18.9,94,100,2.88,BR,1729042847
95,west plains,36.7281,-91.8524,8.46,69,0,2.06,US,1729042848
96,camayenne,9.535,-13.6878,25.05,94,40,1.03,GN,1729042850
97,sitka,57.0531,-135.33,8.94,81,100,2.57,US,1729042851
98,queenstown,-31.8976,26.8753,4.23,88,6,0.78,ZA,1729042852
99,kamianske,48.5113,34.6021,8.45,79,84,2.05,UA,1729042657
100,la sarre,48.8002,-79.1996,2.75,81,100,7.36,CA,1729042854
101,anadyr,64.75,177.4833,1.28,86,0,0.89,RU,1729042855
102,cabo san lucas,22.8909,-109.9124,29.17,58,0,6.17,MX,1729042807
103,itanagar,27.1,93.6167,22.58,59,44,0.68,IN,1729042857
104,atar,20.5169,-13.0499,31.74,30,100,3.27,MR,1729042858
105,karratha,-20.7377,116.8463,31.31,21,0,5.43,AU,1729042860
106,amga,60.8953,131.9608,-4.4,86,54,1.29,RU,1729042861
107,nova sintra,14.8667,-24.7167,27.03,74,31,5.22,CV,1729042863
108,lospalos,-8.5186,127.0025,30.65,44,98,4.35,TL,1729042864
109,praia da vitoria,38.7333,-27.0667,18.14,68,40,9.08,PT,1729042865
110,tete,-16.1564,33.5867,24.05,78,75,4.12,MZ,1729042866
111,puerto ayora,-0.7393,-90.3518,21.42,93,86,3.13,EC,1729042867
112,daru,-9.0763,143.2092,27.91,74,26,4.87,PG,1729042869
113,stettler,52.3168,-112.7186,11.63,52,100,3.11,CA,1729042870
114,nuuk,64.1835,-51.7216,-0.66,74,16,3.6,GL,1729042871
115,revda,56.801,59.9303,-3.82,77,3,1.47,RU,1729042872
116,mitu,1.1983,-70.1733,22.58,96,80,0.81,CO,1729042873
117,iquitos,-3.7481,-73.2472,26.02,78,0,1.54,PE,1729042672
118,ashoknagar,24.5667,77.7167,24.02,44,96,1.45,IN,1729042875
119,lesnoy,57.6198,63.0784,-2.45,78,0,2.05,RU,1729042878
120,cabedelo,-6.9811,-34.8339,25.37,78,87,6.04,BR,1729042879
121,jokioinen,60.8016,23.48,2.23,90,49,2.15,FI,1729042880
122,puerto carreno,6.189,-67.4859,23.01,93,100,0.9,CO,1729042881
123,remire-montjoly,4.9167,-52.2667,25.02,94,20,0.0,GF,1729042882
124,san antonio de pale,-1.4014,5.6325,26.0,75,100,4.13,GQ,1729042883
125,humberto de campos,-2.5983,-43.4611,24.2,87,37,2.14,BR,1729042884
126,woolgoolga,-30.1106,153.2007,18.93,67,100,3.15,AU,1729042886
127,darwin,-12.4611,130.8418,30.53,79,75,1.54,AU,1729042887
128,tofol,5.3248,163.0078,29.88,79,75,3.6,FM,1729042888
129,talcahuano,-36.7167,-73.1167,11.82,94,0,1.54,CL,1729042780
130,hadibu,12.65,54.0333,25.68,79,98,1.45,YE,1729042890
131,ola,59.5833,151.2833,4.44,94,100,5.06,RU,1729042891
132,smithers,54.7804,-127.1743,9.18,76,75,1.54,CA,1729042892
133,atherton,53.5237,-2.4935,14.08,95,100,6.08,GB,1729042893
134,margaret river,-33.95,115.0667,16.03,80,100,5.74,AU,1729042894
135,prado,-17.3411,-39.2208,22.51,87,99,2.9,BR,1729042896
136,trindade,-16.6494,-49.4889,21.86,90,72,1.26,BR,1729042897
137,melekeok village,7.4957,134.6367,30.31,70,75,3.6,PW,1729042898
138,mizdah,31.4451,12.9801,18.72,77,0,3.07,LY,1729042900
139,alliance,40.9153,-81.1059,5.92,92,40,4.57,US,1729042901
140,cheney,47.4874,-117.5758,16.16,62,100,2.71,US,1729042632
141,mundo novo,-11.8589,-40.4725,19.52,91,100,1.74,BR,1729042903
142,tsiombe,-25.3,45.4833,18.95,82,97,4.73,MG,1729042904
143,lethbridge,49.7,-112.8186,15.27,62,100,2.06,CA,1729042720
144,port lincoln,-34.7333,135.8667,20.66,74,50,4.02,AU,1729042907
145,sombrio,-29.1139,-49.6167,18.14,95,80,1.36,BR,1729042908
146,longyearbyen,78.2186,15.6401,0.91,86,40,0.51,SJ,1729042909
147,pisco,-13.7,-76.2167,18.03,88,100,2.06,PE,1729042910
148,alofi,-19.0595,-169.9187,28.94,58,40,5.14,NU,1729042911
149,taltal,-25.4,-70.4833,15.86,80,24,1.84,CL,1729042820
150,bikenibeu village,1.3673,173.1241,31.98,66,20,6.17,KI,1729042913
151,nemuro,43.3236,145.575,16.64,92,100,6.84,JP,1729042914
152,wewak,-3.5534,143.6268,29.04,74,100,3.81,PG,1729042916
153,ouesso,1.6136,16.0517,21.56,99,99,1.04,CG,1729042917
154,lihue,21.9789,-159.3672,28.77,65,40,7.72,US,1729042918
155,kharabali,47.4196,47.2568,6.78,59,95,4.99,RU,1729042919
156,borogontsy,62.6683,131.1683,-5.11,85,42,1.9,RU,1729042920
157,chonchi,-42.6128,-73.8092,8.95,94,90,0.06,CL,1729042921
158,medvedevo,56.6339,47.804,2.59,96,100,3.52,RU,1729042923
159,kununurra,-15.7667,128.7333,34.99,49,59,3.6,AU,1729042924
160,trincomalee,8.5711,81.2335,26.29,85,100,8.18,LK,1729042926
161,horta,38.5333,-28.6333,18.34,71,100,2.24,PT,1729042927
162,vorgashor,67.5833,63.95,-2.76,80,100,3.75,RU,1729042928
163,susuman,62.7833,148.1667,-5.93,92,100,2.09,RU,1729042929
164,katsuura,35.1333,140.3,25.44,76,100,7.48,JP,1729042930
165,arroio grande,-32.2375,-53.0869,17.25,97,7,3.03,BR,1729042635
166,polyarnyy,69.1989,33.4478,2.61,85,8,7.13,RU,1729042932
167,sawang daen din,17.4753,103.4575,30.05,100,81,2.46,TH,1729042933
168,odienne,9.51,-7.5692,22.14,93,100,0.75,CI,1729042934
169,xilin hot,43.9667,116.0333,11.25,54,100,6.43,CN,1729042935
170,akureyri,65.6835,-18.0878,0.96,93,100,2.57,IS,1729042937
171,camapua,-19.5314,-54.0439,25.87,61,69,1.48,BR,1729042938
172,leninskoye,41.7589,69.3864,2.1,73,0,2.54,KZ,1729042939
173,georgetown,5.4112,100.3354,28.86,75,40,3.09,MY,1729042749
174,miyaly,48.8844,53.7836,2.68,52,100,2.91,KZ,1729042941
175,iqaluit,63.7506,-68.5145,0.85,80,75,2.57,CA,1729042942
176,aldama,22.9167,-98.0667,20.61,92,0,1.56,MX,1729042943
177,kananga,-5.8958,22.4178,20.1,95,69,0.79,CD,1729042944
178,mahibadhoo,3.7833,72.9667,28.48,75,88,6.87,MV,1729042945
179,san patricio,28.017,-97.5169,24.97,61,0,3.66,US,1729042947
180,el granada,37.5027,-122.4694,19.24,86,100,7.2,US,1729042948
181,udachny,66.4167,112.4,-10.08,94,99,3.54,RU,1729042949
182,gizo,-8.103,156.8419,28.76,72,81,1.11,SB,1729042950
183,labytnangi,66.6572,66.4183,-2.6,97,100,0.75,RU,1729042951
184,vernon,50.2581,-119.2691,12.64,93,100,0.0,CA,1729042952
185,yeghegnadzor,39.7639,45.3324,15.59,66,100,1.2,AM,1729042954
186,zhangye,38.9342,100.4517,16.74,26,100,1.4,CN,1729042699
187,st. john's,47.5649,-52.7093,16.66,96,100,7.2,CA,1729042918
188,hamilton,39.1834,-84.5333,6.72,89,8,0.45,US,1729042755
189,kapoeta,4.7717,33.5903,22.28,82,100,2.64,SS,1729042959
190,bengkulu,-3.8004,102.2655,27.61,69,71,1.55,ID,1729042794
191,sos'va,59.1766,61.8558,-1.6,65,40,2.05,RU,1729042961
192,kilkenny,52.6542,-7.2522,15.1,99,100,1.79,IE,1729042962
193,kathmandu,27.7167,85.3167,17.12,94,75,0.0,NP,1729042344
194,touros,-5.1989,-35.4608,24.86,75,42,5.22,BR,1729042964
195,papatowai,-46.5619,169.4708,10.76,54,12,4.08,NZ,1729042965
196,portland,45.5234,-122.6762,17.59,89,100,0.89,US,1729042966
197,genhe,50.7833,121.5167,1.38,42,100,3.13,CN,1729042969
198,vilyuchinsk,52.9306,158.4028,8.15,75,45,2.54,RU,1729042970
199,borkum,53.5809,6.6915,10.31,76,100,11.75,DE,1729042971
200,pikalevo,59.5183,34.1664,3.12,98,99,1.55,RU,1729042972
201,greenville,35.6127,-77.3663,11.18,91,100,0.0,US,1729042973
202,forster,-32.1667,152.5167,18.54,79,100,2.66,AU,1729042974
203,kodiak,57.79,-152.4072,9.73,62,75,4.12,US,1729042975
204,cova figueira,14.8905,-24.2934,20.53,80,22,3.76,CV,1729042976
205,tahta,26.7693,31.5021,24.05,43,0,3.42,EG,1729042978
206,gushu,31.5598,118.4829,20.55,84,100,5.49,CN,1729042956
207,mil'kovo,55.6078,37.7956,7.57,64,100,1.77,RU,1729042980
208,chernyshevskiy,63.0128,112.4714,-11.17,70,100,2.54,RU,1729042981
209,saynshand,44.8824,110.1163,7.27,68,5,9.02,MN,1729042982
210,hami,42.8,93.45,19.45,23,71,0.98,CN,1729042983
211,san cristobal,7.7669,-72.225,23.74,87,100,1.1,VE,1729042984
212,holualoa,19.6228,-155.9522,26.02,92,75,4.63,US,1729042692
213,saint-philippe,-21.3585,55.7679,21.99,82,5,2.12,RE,1729042986
214,mournies,35.4764,24.0092,31.04,88,20,0.0,GR,1729042987
215,olonkinbyen,70.9221,-8.7187,-0.12,88,100,6.58,SJ,1729042989
216,northam,51.0333,-4.2167,17.01,98,100,5.48,GB,1729042990
217,carnarvon,-24.8667,113.6333,22.04,61,0,6.57,AU,1729042991
218,enoch,37.7733,-113.0244,23.14,38,75,0.0,US,1729042992
219,zouerate,22.7187,-12.4521,28.63,34,0,3.19,MR,1729042993
220,itaituba,-4.2761,-55.9836,26.91,62,18,0.96,BR,1729042994
221,mbeya,-8.9,33.45,17.59,65,90,2.71,TZ,1729042997
222,mount isa,-20.7333,139.5,33.87,24,0,6.17,AU,1729042998
223,scalea,39.813,15.7956,22.0,63,47,1.22,IT,1729042999
224,galveston,29.3669,-94.9669,26.98,80,0,3.09,US,1729042463
225,arar,30.9753,41.0381,22.01,24,0,0.0,SA,1729043001
226,kudahuvadhoo,2.6708,72.8944,28.15,77,94,6.91,MV,1729043002
227,argo,37.6333,22.7333,18.92,58,0,2.06,GR,1729043003
228,le morne-rouge,14.7667,-61.1333,23.76,79,69,3.39,MQ,1729043004
229,ust-nera,64.5667,143.2,-8.87,89,100,1.63,RU,1729042763
230,ambalavao,-21.8333,46.9333,13.63,54,0,1.53,MG,1729043007
231,siewierz,50.4666,19.2303,-2.02,100,6,1.54,PL,1729042893
232,grand baie,-20.0182,57.5802,22.47,83,15,1.34,MU,1729043009
233,kaedi,16.1465,-13.5047,31.18,54,100,5.81,MR,1729043010
234,whangarei,-35.7317,174.3239,17.1,63,100,2.82,NZ,1729043011
235,oum hadjer,13.2954,19.6966,26.4,70,100,3.18,TD,1729043012
236,san rafael,-34.6177,-68.3301,19.86,58,1,2.03,AR,1729043013
237,rongelap,11.1635,166.8941,27.93,81,100,7.55,MH,1729043017
238,broken hill,-31.95,141.4333,29.61,29,21,3.68,AU,1729043018
239,yatou,37.15,122.3833,18.49,39,11,3.18,CN,1729043019
240,ambon,-3.6954,128.1814,31.08,70,40,2.06,ID,1729043020
241,mizque,-17.941,-65.3402,19.04,65,100,2.36,BO,1729043021
242,la ronge,55.1001,-105.2842,9.14,66,40,1.54,CA,1729043022
243,beyneu,45.3167,55.2,4.95,50,85,3.57,KZ,1729043024
244,golfito,8.639,-83.166,22.71,92,100,0.52,CR,1729043025
245,shenkursk,62.1091,42.896,2.68,91,100,3.65,RU,1729043027
246,biankouma,7.7391,-7.6138,19.83,98,75,0.56,CI,1729043028
247,tazacorte,28.629,-17.9293,22.86,99,20,1.54,ES,1729043029
248,mutoko,-17.397,32.2268,15.82,81,100,1.72,ZW,1729043030
249,mineiros,-17.5694,-52.5511,22.82,73,100,1.7,BR,1729043031
250,meraux,29.933,-89.9498,26.99,73,0,6.69,US,1729043032
251,piacabucu,-10.4056,-36.4344,24.02,85,16,3.15,BR,1729043033
252,posse,-14.0931,-46.3694,21.12,86,100,2.19,BR,1729043034
253,siyabuswa,-25.1132,29.0445,13.24,65,100,3.23,ZA,1729043035
254,bijie,27.3125,105.2942,14.95,79,99,2.38,CN,1729043037
255,alice springs,-23.7,133.8833,35.75,24,0,8.75,AU,1729043038
256,buzdyak,54.5833,54.55,1.75,44,60,2.09,RU,1729043039
257,mont-dore,-22.2833,166.5833,26.11,99,100,6.09,NC,1729043040
258,kuta,-8.7233,115.1723,29.97,70,40,3.6,ID,1729043041
259,chagoda,59.164,35.3285,2.46,98,97,2.51,RU,1729043042
260,garden city,42.3256,-83.331,7.7,74,75,3.09,US,1729043043
261,avarua,-21.2078,-159.775,24.03,57,100,2.06,CK,1729043044
262,aberdeen,57.1437,-2.0981,12.27,95,100,9.77,GB,1729042978
263,kerikeri,-35.2268,173.9474,16.65,62,100,3.61,NZ,1729043046
264,naracoorte,-36.9579,140.7383,27.23,43,99,4.43,AU,1729043048
265,santa ana,33.7456,-117.8678,19.95,80,20,4.63,US,1729043049
266,pico truncado,-46.7949,-67.9573,14.87,33,96,7.96,AR,1729043050
267,ghadamis,30.1337,9.5007,25.78,25,0,4.94,LY,1729043051
268,laela,-8.5667,32.05,20.16,60,70,2.72,TZ,1729043052
269,kendari,-3.945,122.4989,31.84,56,68,1.37,ID,1729043053
270,san jose de ocoa,18.55,-70.5,21.99,88,49,2.35,DO,1729043054
271,okhotsk,59.3833,143.3,-0.93,81,16,6.85,RU,1729043055
272,ta`u,-14.2336,-169.5144,26.52,72,80,8.74,AS,1729043056
273,bredasdorp,-34.5322,20.0403,12.04,87,0,5.01,ZA,1729043058
274,vorkuta,67.5,64.0,-2.54,80,100,3.51,RU,1729043059
275,la'ie,21.6477,-157.9253,29.98,71,5,4.92,US,1729042897
276,sarpol-e zahab,34.4611,45.8626,23.88,28,0,3.08,IR,1729043061
277,iskateley,67.6803,53.1512,0.15,81,100,6.36,RU,1729043062
278,cuenca,-2.8833,-78.9833,14.07,54,40,1.54,EC,1729042987
279,zhezqazghan,47.7833,67.7667,2.32,87,100,6.0,KZ,1729043064
280,ormara,25.2088,64.6357,28.17,62,32,4.02,PK,1729043065
281,minas de matahambre,22.5887,-83.9447,24.02,92,65,2.11,CU,1729043066
282,quiberon,47.4841,-3.1196,18.39,82,10,7.09,FR,1729043068
283,palmer,42.1584,-72.3287,5.71,71,3,3.67,US,1729043069
284,walvis bay,-22.9575,14.5053,14.53,82,9,1.54,NA,1729043070
285,kill devil hills,36.0307,-75.676,14.43,61,0,1.54,US,1729043071
286,chibougamau,49.9168,-74.3659,3.79,70,100,5.14,CA,1729043072
287,lompoc,34.6391,-120.4579,17.05,92,100,4.12,US,1729043073
288,banjar,-8.19,114.9675,31.84,50,87,2.73,ID,1729043074
289,shahba,32.8551,36.629,18.7,65,2,0.35,SY,1729043075
290,cobija,-11.0267,-68.7692,27.31,48,40,1.38,BO,1729043077
291,hasaki,35.7333,140.8333,25.35,71,100,5.72,JP,1729043078
292,ndungu,-4.3667,38.05,19.74,92,41,0.35,TZ,1729043080
293,verkhotur'ye,58.8627,60.8054,-0.92,57,37,2.19,RU,1729043081
294,noshiro,40.2039,140.0242,19.46,70,93,6.56,JP,1729043082
295,nelson bay,-32.7167,152.15,20.05,54,100,1.79,AU,1729043083
296,borrazopolis,-23.9411,-51.5875,21.47,83,81,4.8,BR,1729043084
297,yaren,-0.5472,166.916,28.35,79,15,5.9,NR,1729043085
298,gaspe,48.8334,-64.4819,4.12,81,20,2.57,CA,1729043087
299,sinan,34.8262,126.1086,19.37,80,100,7.78,KR,1729043088
300,alva,56.1528,-3.8051,8.59,98,100,3.3,GB,1729043089
301,bako,5.7833,36.5667,17.66,86,100,1.72,ET,1729043090
302,teknaf,20.8624,92.3058,26.96,76,32,1.75,BD,1729043091
303,toliara,-23.35,43.6667,21.2,80,100,7.1,MG,1729043092
304,paita,-5.0892,-81.1144,17.68,84,57,5.6,PE,1729043093
305,badger,64.8,-147.5333,0.95,84,100,1.54,US,1729043094
306,kemijarvi,66.7131,27.4306,-0.54,87,6,1.73,FI,1729043095
307,mount gambier,-37.8333,140.7667,26.35,43,99,2.93,AU,1729043097
308,yuzhno-kurilsk,44.0306,145.8556,12.83,81,100,10.19,RU,1729043098
309,east end,34.5507,-92.341,13.28,55,1,1.34,US,1729043099
310,kavieng,-2.5744,150.7967,29.8,68,85,4.02,PG,1729043100
311,impfondo,1.6381,18.0667,21.04,98,100,1.04,CG,1729043101
312,bealanana,-14.55,48.7333,15.29,97,82,1.23,MG,1729043102
313,quelimane,-17.8786,36.8883,24.97,78,75,5.36,MZ,1729043103
314,arraial do cabo,-22.9661,-42.0278,20.98,83,0,5.66,BR,1729042999
315,lodwar,3.1191,35.5973,28.93,48,100,4.0,KE,1729043106
316,fort mcmurray,56.7268,-111.381,11.77,46,100,2.06,CA,1729043107
317,kaspiyskiy,45.3929,47.3707,13.39,65,100,4.65,RU,1729043108
318,peniche,39.3558,-9.3811,20.67,98,91,8.59,PT,1729043109
319,sabzevar,36.2126,57.6819,15.24,60,0,3.41,IR,1729043110
320,antonio enes,-16.2325,39.9086,24.25,80,5,4.77,MZ,1729043111
321,flin flon,54.7682,-101.865,5.96,67,84,1.52,CA,1729043112
322,miandoab,36.9694,46.1027,15.55,44,16,2.19,IR,1729043113
323,lebu,-37.6167,-73.65,10.68,82,100,0.31,CL,1729042867
324,ulety,51.3572,112.4849,-1.18,60,96,5.31,RU,1729043115
325,gemena,3.25,19.7667,19.83,99,100,0.4,CD,1729043117
326,blackwater,-23.5833,148.8833,29.72,35,0,4.83,AU,1729043118
327,natal,-5.795,-35.2094,25.36,73,20,5.66,BR,1729042904
328,puerto colombia,10.9878,-74.9547,26.05,78,100,2.52,CO,1729043120
329,teyateyaneng,-29.1472,27.7489,9.54,61,15,2.1,LS,1729043121
330,howrah,22.5892,88.3103,28.0,89,40,2.06,IN,1729043122
331,kitimat,54.0524,-128.6534,8.28,27,100,0.91,CA,1729043123
332,chernomorskoye,45.5039,32.6997,12.57,88,100,10.17,UA,1729043124
333,marsabit,2.3284,37.9899,19.8,61,96,6.57,KE,1729043126
334,atafu village,-8.5421,-172.5159,28.56,72,11,3.47,TK,1729043127
335,saint-joseph,-21.3667,55.6167,20.21,79,2,0.7,RE,1729043128
336,kosh-agach,50.0,88.6667,-0.95,78,100,0.6,RU,1729043129
337,usinsk,65.9939,57.5281,-0.41,90,100,8.47,RU,1729043130
338,souillac,-20.5167,57.5167,21.21,88,40,4.12,MU,1729043131
339,tralee,52.2704,-9.7026,13.31,97,57,2.69,IE,1729043132
340,sukhodol,53.9006,51.2117,2.7,36,100,2.39,RU,1729043133
341,linxia chengguanzhen,35.6003,103.2064,9.13,82,100,1.65,CN,1729043134
342,vila velha,-20.3297,-40.2925,22.97,86,75,2.57,BR,1729043110
343,summerside,46.3959,-63.7876,8.07,81,100,6.69,CA,1729042874
344,hilo,19.7297,-155.09,27.27,75,75,2.57,US,1729043138
345,pankovka,58.5,31.1999,4.39,94,69,2.99,RU,1729043140
346,cassilandia,-19.1133,-51.7342,22.98,82,40,1.4,BR,1729042878
347,mathba,22.2855,89.9629,26.51,74,95,2.5,BD,1729043143
348,fortuna,40.5982,-124.1573,16.63,92,40,3.6,US,1729043144
349,serdar,38.9764,56.2757,9.72,47,6,4.84,TM,1729043145
350,puerto lempira,15.2667,-83.7667,26.03,83,100,1.91,HN,1729043146
351,unye,11.4502,13.962,24.98,74,100,3.13,NG,1729043147
352,santa ines,-3.6667,-45.38,25.77,73,33,2.74,BR,1729043148
353,murudeshwara,14.0943,74.4845,25.13,88,100,1.55,IN,1729043151
354,hachinohe,40.5,141.5,20.94,82,100,2.71,JP,1729043152
355,vila franca do campo,37.7167,-25.4333,19.23,99,27,6.46,PT,1729043153
356,crane,31.3974,-102.3501,24.41,20,0,4.02,US,1729043154
357,port alfred,-33.5906,26.891,15.1,80,16,3.13,ZA,1729043155
358,iola,37.9245,-95.4,11.03,45,0,3.09,US,1729043156
359,geraldton,-28.7667,114.6,20.23,68,100,5.66,AU,1729043157
360,uturoa,-16.7333,-151.4333,25.02,63,0,1.08,PF,1729043160
361,yerofey pavlovich,53.9667,121.9667,-1.24,39,100,0.24,RU,1729043161
362,logansport,40.7545,-86.3567,5.86,62,0,0.0,US,1729043162
363,awjilah,29.1081,21.2869,20.56,70,0,3.08,LY,1729043163
364,tarauaca,-8.1614,-70.7656,26.12,70,77,1.17,BR,1729043164
365,bel ombre,-4.6167,55.4167,26.91,83,20,3.6,SC,1729043165
366,progreso,21.2833,-89.6667,25.96,88,10,4.62,MX,1729043166
367,xiaoweizhai,26.1903,107.5125,20.35,75,16,1.45,CN,1729043167
368,fisterra,42.9049,-9.2629,17.43,97,100,0.98,ES,1729043168
369,sinabang,2.4803,96.3801,28.47,72,100,1.3,ID,1729043170
370,selkirk,50.1436,-96.8845,6.21,67,75,3.13,CA,1729043171
371,sao joao da barra,-21.6403,-41.0511,22.64,79,100,4.74,BR,1729043172
372,hammerfest,70.6634,23.6821,3.25,87,40,0.51,NO,1729043173
373,tabou,4.423,-7.3528,24.42,91,18,2.74,CI,1729043174
374,diu,20.7141,70.9822,27.63,79,100,1.99,IN,1729043175
375,whakatane,-37.9585,176.9854,16.95,63,40,4.47,NZ,1729043176
376,el bauga,18.262,33.9081,30.55,19,45,2.12,SD,1729043177
377,sisimiut,66.9395,-53.6735,-1.6,77,70,2.83,GL,1729043178
378,tinde,-3.8833,33.2,24.56,54,99,2.05,TZ,1729043180
379,saldanha,-33.0117,17.9442,13.03,48,0,1.41,ZA,1729043151
380,maneromango,-7.1988,38.7848,18.66,97,8,0.67,TZ,1729043184
381,santa vitoria do palmar,-33.5189,-53.3681,14.84,97,48,2.73,BR,1729042897
382,nar'yan-mar,67.6713,53.087,0.13,81,100,6.37,RU,1729043187
383,jalalaqsi,3.3766,45.5996,24.72,82,70,3.52,SO,1729043188
384,fastiv,50.0767,29.9177,5.78,95,94,2.9,UA,1729043189
385,klyuchi,52.2667,79.1667,-0.53,69,96,1.96,RU,1729043191
386,guerrero negro,27.9769,-114.0611,19.12,80,0,6.24,MX,1729043192
387,funafuti,-8.5243,179.1942,31.0,79,40,2.06,TV,1729043193
388,armacao de buzios,-22.7469,-41.8817,21.09,82,100,6.94,BR,1729043194
389,dazhong,33.1997,120.4578,21.74,76,100,5.84,CN,1729043195
390,nikol'sk,53.7189,46.0712,1.37,98,100,3.44,RU,1729043196
391,north battleford,52.7834,-108.2847,8.05,66,0,4.63,CA,1729043197
392,happy valley-goose bay,53.3168,-60.3315,2.17,93,100,5.14,CA,1729043198
393,dzilam gonzalez,21.2833,-88.9333,23.66,98,3,2.35,MX,1729043199
394,fuchucho,34.5667,133.2333,21.71,82,99,1.07,JP,1729043200
395,nadi,-17.8,177.4167,27.0,78,75,2.57,FJ,1729043202
396,saki,8.6667,3.3833,21.45,95,100,1.55,NG,1729043203
397,kalagarh project colony,29.5,78.75,19.93,75,11,1.59,IN,1729043204
398,emerald,-23.5333,148.1667,27.97,44,0,4.81,AU,1729043205
399,jumla,29.2747,82.1838,11.02,61,1,1.18,NP,1729043206
400,mejit,10.2753,170.8646,28.69,80,100,7.11,MH,1729043207
401,shingu,33.7333,135.9833,24.25,80,100,0.84,JP,1729043208
402,springbok,-29.6643,17.8865,13.31,52,2,1.38,ZA,1729043210
403,birjand,32.8663,59.2211,12.26,28,0,2.06,IR,1729043211
404,thinadhoo,0.5333,72.9333,28.3,76,52,6.56,MV,1729043212
405,jayapura,-2.5333,140.7,30.66,58,86,0.75,ID,1729043213
406,noosa heads,-26.3833,153.15,21.2,72,67,2.7,AU,1729043214
407,east london,-33.0153,27.9116,14.97,73,23,7.34,ZA,1729043215
408,carbonear,47.7332,-53.2148,15.56,96,76,6.38,CA,1729043216
409,vizinga,61.0749,50.1031,4.03,86,100,4.27,RU,1729043217
410,guarapari,-20.6667,-40.4975,21.24,85,100,1.27,BR,1729042942
411,palikir - national government center,6.9248,158.1611,30.47,74,75,5.14,FM,1729043115
412,axim,4.8699,-2.2405,24.68,88,82,1.46,GH,1729043221
413,kidal,18.4411,1.4078,30.3,16,15,3.01,ML,1729043222
414,san julian,21.0167,-102.1667,17.07,44,0,2.27,MX,1729043223
415,bathsheba,13.2167,-59.5167,28.34,78,20,3.6,BB,1729043225
416,jaggayyapeta,16.9,80.1,25.97,89,100,1.73,IN,1729043227
417,codrington,-38.2667,141.9667,23.94,57,100,4.48,AU,1729043229
418,epe,6.5841,3.9834,24.38,92,100,1.49,NG,1729043230
419,darasun,51.6667,114.0,0.24,52,9,6.15,RU,1729043231
420,colonia,50.9333,6.95,13.4,85,100,5.14,DE,1729043141
421,balabac,7.9868,117.0645,27.84,78,100,2.55,PH,1729043233
422,kaliganj,23.4095,89.1402,26.33,76,18,2.56,BD,1729043234
423,jianshui,23.6363,102.8264,19.37,90,95,1.1,CN,1729043235
424,ginir,7.1333,40.7,14.22,72,54,2.36,ET,1729043239
425,sungurlu,40.1675,34.3739,12.47,74,5,1.23,TR,1729043244
426,tolanaro,-25.0319,46.9987,20.04,94,75,6.17,MG,1729043245
427,manay,7.215,126.5397,29.38,67,11,2.45,PH,1729043248
428,saint-pierre,-21.3393,55.4781,20.82,73,0,2.06,RE,1729043037
429,papao,-17.75,-149.55,27.82,73,1,3.17,PF,1729043251
430,ialibu,-6.2821,143.9935,18.47,90,99,0.84,PG,1729043255
431,dolyns'ka,48.1104,32.7645,7.39,78,75,2.66,UA,1729043256
432,coquimbo,-29.9533,-71.3436,12.85,85,100,0.0,CL,1729042616
433,cyangugu,-2.4846,28.9075,15.59,93,68,0.55,RW,1729043261
434,knyaze-volkonskoye,48.4642,135.4567,5.19,25,1,8.09,RU,1729043262
435,nizhnyaya poyma,56.1622,97.1933,0.18,71,100,4.09,RU,1729043265
436,kasane,-17.8167,25.15,18.81,71,54,2.48,BW,1729043266
437,choibalsan,48.0667,114.5,2.06,52,32,4.65,MN,1729043268
438,dondo,-19.6094,34.7431,21.73,59,100,4.42,MZ,1729043269
439,la cruz,23.9167,-106.9,26.27,81,0,1.38,MX,1729043271
440,santa elena de uairen,4.6167,-61.1333,22.78,66,99,1.41,VE,1729043275
441,padang,-0.9492,100.3543,26.03,67,86,1.0,ID,1729043217
442,desaguadero,-16.5656,-69.0417,9.93,64,4,3.73,PE,1729043280
443,guillena,37.5426,-6.0563,21.14,97,100,1.34,ES,1729043281
444,kantang,7.4054,99.5156,27.05,89,20,1.03,TH,1729043285
445,capitao poco,-1.7464,-47.0594,22.87,85,41,1.64,BR,1729043287
446,saudarkrokur,65.7461,-19.6394,2.2,97,100,1.07,IS,1729043290
447,port saint john's,-31.6229,29.5448,15.29,76,63,4.78,ZA,1729043291
448,chiang klang,19.2938,100.8617,25.35,86,92,0.77,TH,1729043293
449,santa marta de ortigueira,43.6833,-7.85,16.73,100,100,1.43,ES,1729043294
450,alesund,62.4723,6.1549,10.42,66,100,5.14,NO,1729043296
451,luderitz,-26.6481,15.1594,12.75,96,15,1.13,NA,1729043297
452,gurun,5.8172,100.4738,21.22,92,100,1.96,MY,1729043298
453,sinop,41.7711,34.8709,10.51,92,10,3.34,TR,1729043299
454,richards bay,-28.783,32.0377,17.46,61,96,3.41,ZA,1729043300
455,zintan,31.9223,12.252,19.12,59,0,4.24,LY,1729043301
456,santiago de cuba,20.0247,-75.8219,25.06,88,40,2.57,CU,1729043302
457,madang,-5.2246,145.7966,29.51,67,100,3.11,PG,1729043303
458,crestview,30.7621,-86.5705,20.14,56,100,2.06,US,1729043304
459,washington,47.5001,-120.5015,15.22,85,100,1.98,US,1729043306
460,kuraymah,18.55,31.85,30.76,18,49,5.46,SD,1729043307
461,siracusa,37.0881,15.2792,20.97,73,94,1.11,IT,1729043308
462,am timan,11.0297,20.2827,21.65,87,100,1.94,TD,1729043309
463,tucupita,9.0622,-62.051,24.49,93,100,1.18,VE,1729043310
464,santana,-0.0583,-51.1817,29.1,79,40,4.12,BR,1729043311
465,faya-largeau,17.9257,19.1043,28.64,18,44,4.76,TD,1729043312
466,paragominas,-2.9667,-47.4833,26.18,61,81,1.43,BR,1729043313
467,as sulayyil,20.4607,45.5779,23.38,31,2,1.8,SA,1729043314
468,cockburn town,21.4612,-71.1419,29.42,70,10,7.85,TC,1729043316
469,puerto deseado,-47.7503,-65.8938,16.68,38,91,6.99,AR,1729043317
470,kolomna,55.0794,38.7783,6.55,89,100,2.53,RU,1729043318
471,banda aceh,5.5577,95.3222,28.05,69,100,1.2,ID,1729043319
472,kenai,60.5544,-151.2583,9.05,67,0,3.09,US,1729043320
473,prince rupert,54.3161,-130.3201,9.83,95,100,7.2,CA,1729043322
474,san pedro,14.35,121.0167,31.29,77,20,2.57,PH,1729043228
475,foca,38.6703,26.7566,12.91,61,6,6.83,TR,1729043324
476,la passe,45.5549,-0.8967,18.33,90,97,8.04,FR,1729043326
477,kiama,-34.6833,150.8667,19.65,45,82,3.44,AU,1729043327
478,cidreira,-30.1811,-50.2056,18.57,93,100,2.28,BR,1729043247
479,bandarbeyla,9.4942,50.8122,24.95,94,88,6.16,SO,1729043329
480,colares,38.7992,-9.4469,20.18,88,77,9.26,PT,1729043330
481,island harbour,50.724,-1.2758,16.66,75,100,4.02,GB,1729043331
482,kirensk,57.7853,108.1119,-3.1,92,100,6.28,RU,1729043332
483,nyurba,63.2842,118.3319,-6.0,79,100,2.2,RU,1729043333
484,grantsville,40.5999,-112.4644,19.24,39,1,1.4,US,1729043334
485,sayat,38.7839,63.8803,5.58,58,0,4.27,TM,1729043336
486,ciudad lazaro cardenas,17.9583,-102.2,26.73,86,19,1.4,MX,1729043209
487,buta,2.7858,24.73,20.21,100,100,0.97,CD,1729043338
488,callao,-12.0667,-77.15,18.73,77,100,5.14,PE,1729043106
489,tsengel,49.4783,100.8894,-0.17,72,1,1.58,MN,1729043340
490,stornoway,58.2093,-6.3865,12.98,86,75,5.14,GB,1729043341
491,kuala terengganu,5.3302,103.1408,26.97,89,20,2.24,MY,1729043342
492,vilyuysk,63.7553,121.6247,-2.99,90,100,3.2,RU,1729043343
493,cartagena,10.3997,-75.5144,27.79,78,20,1.03,CO,1729043344
494,razdol'noye,45.7708,33.4878,10.93,87,100,5.88,UA,1729043346
495,kapa'a,22.0752,-159.319,29.18,75,40,7.72,US,1729043347
496,kingisepp,59.3733,28.6134,4.27,88,57,1.98,RU,1729043349
497,sarupathar,26.1984,93.8094,22.71,87,33,1.39,IN,1729043352
498,kez,57.8979,53.7152,0.13,56,100,2.15,RU,1729043353
499,nakamura,32.9833,132.9333,26.27,72,100,1.76,JP,1729043354
500,ambovombe,-25.1667,46.0833,18.66,86,100,6.23,MG,1729043356
501,deir ez-zor,35.3359,40.1408,24.95,47,0,2.82,SY,1729043357
502,kadinhani,38.2397,32.2114,13.01,62,8,0.25,TR,1729043358
503,vanino,49.0869,140.2543,7.67,41,39,6.35,RU,1729043359
504,quellon,-43.1167,-73.6167,8.49,83,89,1.48,CL,1729043360
505,alotau,-10.3069,150.4462,31.61,60,93,2.99,PG,1729043361
506,puerto leguizamo,-0.1934,-74.7819,22.39,92,100,1.32,CO,1729043362
507,boende,-0.2167,20.8667,20.76,99,100,1.14,CD,1729043363
508,uliastay,47.7417,96.8444,-2.93,85,100,2.35,MN,1729043364
509,rhinelander,45.6366,-89.4121,1.09,80,0,2.57,US,1729043229
510,mahina,-17.5065,-149.489,27.87,61,20,2.57,PF,1729043367
511,mincivan,39.0294,46.7185,13.5,87,92,0.77,AZ,1729043368
512,hermiston,45.8404,-119.2895,20.81,55,81,2.24,US,1729043369
513,jabat,7.75,168.9751,28.95,75,100,6.26,MH,1729043370
514,weno,7.4515,151.8468,31.97,74,75,4.12,FM,1729043372
515,ponta delgada,37.7333,-25.6667,19.4,63,20,5.66,PT,1729043373
516,pangody,65.85,74.4859,-4.96,76,98,6.5,RU,1729043374
517,faaa,-17.55,-149.6,27.98,61,20,2.57,PF,1729043375
518,colindres,43.3864,-3.4353,19.25,77,100,1.89,ES,1729043376
519,laguna,38.421,-121.4238,26.1,53,0,2.24,US,1729043377
520,bereket,39.2446,55.5154,9.75,39,8,6.4,TM,1729043378
521,nouadhibou,20.931,-17.0347,20.39,86,20,7.83,MR,1729043379
522,geri,35.1,33.4167,20.6,88,40,0.0,CY,1729043380
523,san luis de la loma,17.2706,-100.8939,26.63,88,43,2.93,MX,1729043382
524,kamiiso,41.8167,140.65,19.21,68,40,6.17,JP,1729043383
525,luanda,-8.8368,13.2343,25.0,83,75,2.06,AO,1729042881
526,aasiaat,68.7098,-52.8699,-5.0,93,100,3.81,GL,1729043385
527,buckhannon,38.994,-80.232,4.67,90,100,1.54,US,1729043137
528,teguise,29.0605,-13.564,21.12,78,0,3.6,ES,1729043387
529,castillos,-34.1667,-53.8333,13.03,96,2,2.63,UY,1729043388
530,nadvoitsy,63.8667,34.3167,0.97,88,10,5.3,RU,1729043389
531,bikin,46.8161,134.26,6.78,29,0,2.99,RU,1729043390
532,ostersund,63.1792,14.6357,3.67,82,40,2.57,SE,1729043391
533,kismayo,-0.3582,42.5454,24.93,84,11,3.99,SO,1729043393
534,mwene-ditu,-7.0,23.45,18.13,92,53,1.58,CD,1729043394
535,mugia,43.1041,-9.2179,17.17,96,100,1.82,ES,1729043395
536,del rio,29.3627,-100.8968,29.06,19,0,3.09,US,1729043396
537,sao vicente,-23.9631,-46.3919,22.19,26,100,2.68,BR,1729043397
538,al jawf,29.5,38.75,22.42,27,0,2.52,SA,1729043398
539,sibi,29.5448,67.8764,26.78,21,70,0.46,PK,1729043399
540,maua,-23.6678,-46.4614,18.89,89,100,0.68,BR,1729043349
541,taunggyi,20.7833,97.0333,21.49,85,2,0.34,MM,1729043401
542,askoy,60.4092,5.226,7.65,81,100,3.6,NO,1729043403
543,don luan,11.5333,106.9167,28.3,83,99,1.37,VN,1729043405
544,galesong,-5.3166,119.3661,30.39,58,99,1.36,ID,1729043406
545,labrador city,52.9463,-66.9114,0.1,73,100,32.19,CA,1729043113
546,barra de santo antonio,-9.4047,-35.5072,23.86,85,94,2.71,BR,1729043408
547,smara,26.7384,-11.6719,21.18,64,100,2.86,EH,1729043409
548,harnosand,62.6323,17.9379,1.0,61,98,3.18,SE,1729043410
549,taghazout,30.5426,-9.7112,22.7,59,100,3.24,MA,1729043411
550,aden,12.7794,45.0367,30.61,75,36,1.32,YE,1729043413
551,arteche,12.2645,125.4048,30.61,66,53,2.73,PH,1729043414
552,arroyo,41.6096,-4.7969,16.23,73,20,6.17,ES,1729043415
553,sept-iles,50.2001,-66.3821,5.0,87,100,6.17,CA,1729043416
554,youghal,51.95,-7.8506,14.16,99,100,2.69,IE,1729043417
555,south hedland,-20.4089,118.5983,30.96,45,1,6.17,AU,1729043418
556,zamora,-4.0692,-78.9567,18.86,91,100,0.99,EC,1729043419
557,gasa,31.5,34.4667,23.42,74,0,2.09,PS,1729043420
558,aldinga beach,-35.2793,138.4604,27.82,50,100,1.9,AU,1729043421
559,valparaiso,-33.0393,-71.6273,11.8,93,100,1.54,CL,1729043260
560,acheng,45.5454,126.977,7.11,36,57,5.41,CN,1729043424
561,mccook,40.2019,-100.6257,8.03,34,0,3.6,US,1729043425
562,ploneour-lanvern,47.9,-4.2833,17.18,94,100,4.12,FR,1729043426
563,bella union,-30.2752,-57.6007,20.9,92,88,2.85,UY,1729043427
564,dalandzadgad,43.5708,104.425,5.66,67,2,6.42,MN,1729043429
565,ishigaki,24.3448,124.1572,30.07,79,75,5.14,JP,1729043430
566,tindouf,27.6711,-8.1474,22.25,46,0,1.54,DZ,1729043431
567,al qusiyah,27.4402,30.8184,22.0,60,0,4.17,EG,1729043432
568,senador jose porfirio,-2.5908,-51.9542,25.38,81,28,0.74,BR,1729043433
569,labuan,5.2767,115.2417,29.2,83,20,1.03,MY,1729043434
570,malango,-2.9627,119.9001,22.39,88,92,1.28,ID,1729043435
571,armyansk,46.1092,33.6921,10.85,80,100,6.23,UA,1729043437
572,wynyard,-41.0,145.7167,14.67,74,97,7.15,AU,1729043104
573,dogondoutchi,13.6393,4.0287,28.22,55,11,2.89,NE,1729043439
574,metlili chaamba,32.2667,3.6333,24.52,53,40,2.06,DZ,1729043440
575,tionk essil,12.7856,-16.5217,25.0,85,100,1.04,SN,1729043441
576,villa gesell,-37.2639,-56.973,12.76,95,17,3.72,AR,1729043262
577,ust-tsilma,65.441,52.1498,2.23,93,100,4.55,RU,1729043444
578,toyooka,35.5333,134.8333,23.03,94,75,1.03,JP,1729043445
579,tual,-5.6667,132.75,27.8,75,51,5.49,ID,1729043446
580,toledo,39.8333,-4.0,17.49,76,100,9.68,ES,1729043121
581,kavaratti,10.5669,72.642,26.71,79,100,4.18,IN,1729043449
582,morozovsk,48.3539,41.8261,7.92,96,100,3.43,RU,1729043450
583,novospasskoye,53.1468,47.7514,2.66,93,100,4.16,RU,1729043451
584,yoichi,43.2039,140.7703,14.21,56,0,3.88,JP,1729043452
585,noumea,-22.2763,166.4572,26.11,99,100,8.86,NC,1729043453
586,ulysses,37.5814,-101.3552,9.02,46,100,3.6,US,1729043454
