City_ID,City,Lat,Lng,Max Temp,Humidity,Cloudiness,Wind Speed,Country,Date
0,san antonio de pale,-1.4014,5.6325,24.77,76,45,3.63,GQ,1729205598
1,freetown,8.484,-13.2299,26.84,78,75,3.6,SL,1729205600
2,djambala,-2.5447,14.7533,19.96,93,45,0.83,CG,1729205602
3,touros,-5.1989,-35.4608,24.9,79,58,5.12,BR,1729205603
4,menongue,-14.6585,17.691,19.33,69,91,0.26,AO,1729205604
5,loango,-4.6719,11.8312,24.69,89,28,1.34,CG,1729205605
6,inongo,-1.95,18.2667,23.42,79,31,2.26,CD,1729205606
7,masumbwe,-3.6333,32.1833,21.72,68,92,1.03,TZ,1729205607
8,georgetown,5.4112,100.3354,25.97,84,40,2.24,MY,1729205347
9,paracuru,-3.41,-39.0306,25.54,74,87,5.11,BR,1729205610
10,birao,10.2849,22.7882,24.19,77,22,1.22,CF,1729205611
11,meru,0.0463,37.6559,16.93,74,59,0.58,KE,1729205612
12,beberibe,-4.1797,-38.1306,24.96,78,18,4.22,BR,1729205613
13,namibe,-15.1961,12.1522,18.46,82,64,2.34,AO,1729205614
14,saltpond,5.2091,-1.0606,24.52,89,94,2.38,GH,1729205615
15,anloga,5.7947,0.8973,25.65,83,82,2.85,GH,1729205616
16,maracas,-13.4411,-40.4308,20.28,86,100,1.51,BR,1729205617
17,siguiri,11.6667,-9.5,24.4,85,71,1.11,GN,1729205618
18,jamestown,42.097,-79.2353,10.8,46,0,3.09,US,1729205568
19,conde,-7.2597,-34.9075,25.7,78,75,4.12,BR,1729205451
20,cestos city,5.46,-9.5828,24.74,90,100,2.5,LR,1729205622
21,praia,14.9215,-23.5087,26.3,89,20,4.12,CV,1729205623
22,mundo novo,-11.8589,-40.4725,22.43,79,99,0.56,BR,1729205624
23,carutapera,-1.195,-46.02,25.96,75,12,4.28,BR,1729205625
24,mwatate,-3.5029,38.3795,19.98,86,100,2.81,KE,1729205626
25,bonthe,7.5264,-12.505,24.49,91,95,1.81,SL,1729205627
26,ruy barbosa,-12.2839,-40.4939,25.84,63,87,0.79,BR,1729205628
27,jamaame,0.0697,42.745,24.92,82,75,4.78,SO,1729205629
28,acarau,-2.8856,-40.12,25.89,73,88,6.42,BR,1729205630
29,barroquinha,-3.0189,-41.1361,25.42,76,76,3.31,BR,1729205632
30,remire-montjoly,4.9167,-52.2667,28.02,78,0,1.54,GF,1729205633
31,geneina,13.45,22.45,25.49,61,56,2.0,SD,1729205634
32,seme,15.1942,-12.9448,31.51,50,100,2.37,SN,1729205635
33,hargeysa,9.56,44.065,23.4,56,92,2.69,SO,1729205636
34,kabwe,-14.4469,28.4464,17.4,63,1,2.36,ZM,1729205637
35,cape coast,5.1053,-1.2466,24.61,90,96,2.68,GH,1729205638
36,sibut,5.718,19.0739,22.7,89,90,1.32,CF,1729205639
37,kibiya,11.5263,8.6623,25.78,58,100,3.3,NG,1729205640
38,axim,4.8699,-2.2405,24.72,88,87,2.35,GH,1729205642
39,micheweni,-4.9667,39.8333,25.34,83,100,4.27,TZ,1729205643
40,oyem,1.5995,11.5793,20.01,99,99,1.55,GA,1729205644
41,nova sintra,14.8667,-24.7167,26.6,83,7,6.02,CV,1729205645
42,bokani,9.4333,5.2,24.28,89,53,1.78,NG,1729205646
43,asaita,11.5636,41.4394,33.21,41,69,2.21,ET,1729205647
44,cabedelo,-6.9811,-34.8339,26.37,77,59,5.82,BR,1729205648
45,elesbao veloso,-6.2019,-42.1403,28.66,49,60,0.54,BR,1729205649
46,kilindoni,-7.9139,39.6668,25.76,83,93,5.2,TZ,1729205650
47,barra de santo antonio,-9.4047,-35.5072,24.76,76,14,5.28,BR,1729205652
48,beinamar,8.6698,15.3813,22.78,94,98,1.89,TD,1729205653
49,mossendjo,-2.9506,12.7261,21.43,99,82,1.93,CG,1729205654
50,leua,48.2156,18.6071,8.74,56,10,5.59,SK,1729205655
51,bubaque,11.2833,-15.8333,27.96,78,93,5.22,GW,1729205657
52,goundi,9.3627,17.366,24.5,83,26,1.63,TD,1729205658
53,beni,0.5,29.4667,16.46,99,74,0.67,CD,1729205659
54,beli,7.8587,10.9719,22.95,95,88,1.04,NG,1729205660
55,fortaleza,-3.7227,-38.5247,27.82,89,20,3.09,BR,1729205424
56,gounou gaya,9.6294,15.5132,24.41,73,30,2.13,TD,1729205663
57,harper,4.375,-7.7169,24.71,89,97,2.22,LR,1729205664
58,orodo,5.6167,7.0333,22.55,97,99,1.74,NG,1729205665
59,wau,7.7029,27.9953,23.35,83,19,0.36,SS,1729205666
60,lupiro,-8.3833,36.6667,22.96,82,88,0.87,TZ,1729205667
61,kismayo,-0.3582,42.5454,25.43,81,67,6.44,SO,1729205669
62,natal,-5.795,-35.2094,26.36,73,40,5.14,BR,1729205283
63,zambezi,-13.5432,23.1047,19.57,75,85,1.82,ZM,1729205672
64,pitimbu,-7.4706,-34.8086,25.15,76,28,5.66,BR,1729205673
65,xique xique,-10.8217,-42.7311,26.96,68,82,2.1,BR,1729205675
66,okeho,8.0333,3.35,21.51,98,98,1.76,NG,1729205676
67,piacabucu,-10.4056,-36.4344,25.03,77,49,5.39,BR,1729205594
68,assab,13.0092,42.7394,29.64,79,23,4.88,ER,1729205679
69,al qadarif,14.0349,35.3834,26.85,49,5,1.55,SD,1729205680
70,mitsamiouli,-11.3847,43.2844,25.6,76,28,1.49,KM,1729205681
71,camocim,-2.9022,-40.8411,25.84,77,92,6.06,BR,1729205682
72,greenville,35.6127,-77.3663,12.85,67,0,0.0,US,1729205683
73,montepuez,-13.1256,38.9997,21.26,69,74,3.07,MZ,1729205685
74,rabak,13.1809,32.74,30.47,45,4,4.03,SD,1729205686
75,mek'ele,13.4967,39.4753,15.4,62,31,1.2,ET,1729205688
76,boende,-0.2167,20.8667,21.27,88,85,0.74,CD,1729205689
77,pader palwo,2.8006,33.135,18.35,88,77,0.9,UG,1729205690
78,garissa,-0.4536,39.6401,24.74,71,89,6.4,KE,1729205691
79,cidade velha,14.9167,-23.6167,26.26,89,20,4.12,CV,1729205692
80,raja,8.4596,25.678,22.49,88,18,0.94,SS,1729205693
81,kabare,-2.4683,28.8242,16.91,92,97,0.25,CD,1729205694
82,maragogi,-9.0122,-35.2225,24.46,76,30,4.28,BR,1729205696
83,monrovia,6.3005,-10.7969,25.06,88,100,2.29,LR,1729205504
84,moroni,-11.7022,43.2551,24.66,82,16,4.47,KM,1729205698
85,yokadouma,3.5167,15.05,20.57,98,70,0.72,CM,1729205699
86,ouadda,8.0777,22.4007,20.66,90,100,1.59,CF,1729205700
87,saurimo,-9.6608,20.3916,18.58,95,54,0.7,AO,1729205703
88,voi,-3.3945,38.563,22.06,81,98,3.51,KE,1729205704
89,dikhil,11.5,42.1667,28.74,44,62,2.43,DJ,1729205705
90,tabou,4.423,-7.3528,24.23,91,100,0.57,CI,1729205706
91,bosobolo,4.1833,19.9,22.78,90,94,1.06,CD,1729205707
92,bunia,1.5667,30.25,16.71,91,30,1.02,CD,1729205709
93,wajir,1.7471,40.0573,26.12,58,77,6.44,KE,1729205710
94,quixeramobim,-5.1992,-39.2928,28.84,49,50,3.84,BR,1729205474
95,akoupe,6.39,-3.9003,21.6,100,100,0.99,CI,1729205712
96,tutoia,-2.7619,-42.2744,26.12,78,63,4.78,BR,1729205713
97,bandiagara,14.3501,-3.6104,32.69,27,95,2.22,ML,1729205714
98,dabola,10.75,-11.1167,22.64,90,65,0.38,GN,1729205715
99,bahir dar,11.5936,37.3908,15.2,86,48,1.6,ET,1729205716
100,tillaberi,14.2117,1.4531,33.32,32,100,3.07,NE,1729205719
101,anisoc,1.8658,10.7689,21.74,100,100,0.81,GQ,1729205722
102,hinna,10.3043,11.4991,26.05,70,82,2.63,NG,1729205723
103,trairi,-3.2778,-39.2689,25.42,72,99,4.48,BR,1729205651
104,olinda,-8.0089,-34.8553,26.85,74,40,4.12,BR,1729205726
105,sao jose da coroa grande,-8.8978,-35.1478,24.79,76,34,5.01,BR,1729205727
106,abu jibeha,11.4562,31.2285,23.7,68,1,1.91,SD,1729205728
107,luanda,-8.8368,13.2343,25.0,83,75,2.57,AO,1729205729
108,elmina,5.0898,-1.348,24.55,90,97,2.49,GH,1729205730
109,liwale,-9.7667,37.9333,21.56,82,66,0.85,TZ,1729205731
110,bria,6.5423,21.9863,20.82,94,100,1.2,CF,1729205732
111,marka,1.7159,44.7717,25.24,86,99,5.51,SO,1729205733
112,wad az zaki,14.4619,32.2065,32.65,30,48,3.67,SD,1729205734
113,pindobacu,-10.7417,-40.3608,23.91,75,100,1.23,BR,1729205735
114,luau,-10.7073,22.2247,18.52,87,100,1.55,AO,1729205737
115,tshela,-4.9833,12.9333,22.81,94,89,1.08,CD,1729205738
116,san-pedro,4.7485,-6.6363,23.68,95,100,2.9,CI,1729205739
117,kalabo,-14.97,22.6814,24.9,34,73,3.27,ZM,1729205740
118,uyovu,-3.2833,31.5258,19.09,78,64,1.58,TZ,1729205741
119,kyabe,9.4515,18.9449,24.97,78,70,0.97,TD,1729205742
120,floriano,-6.7669,-43.0225,30.03,48,90,0.86,BR,1729205743
121,laela,-8.5667,32.05,20.01,71,97,0.83,TZ,1729205744
122,owando,-0.4819,15.8999,23.39,85,62,1.36,CG,1729205745
123,garanhuns,-8.8903,-36.4928,18.47,88,60,3.96,BR,1729205522
124,tionk essil,12.7856,-16.5217,26.12,85,91,2.57,SN,1729205748
125,ode,7.7899,5.7117,21.08,99,83,2.12,NG,1729205749
126,camabatela,-8.1881,15.375,17.72,96,99,1.37,AO,1729205750
127,castelo do piaui,-5.3222,-41.5525,28.57,49,94,1.19,BR,1729205751
128,malindi,-3.2175,40.1191,24.93,88,100,4.79,KE,1729205752
129,tamandare,-8.7597,-35.1047,24.57,76,44,4.47,BR,1729205594
130,kataba,8.4604,-0.7732,24.86,90,100,2.54,GH,1729205754
131,al mijlad,11.0333,27.7333,29.0,58,68,3.56,SD,1729205756
132,djenne,13.9061,-4.5533,31.52,38,100,3.94,ML,1729205758
133,batie,9.8833,-2.9167,23.76,89,65,1.83,BF,1729205759
134,brazzaville,-4.2658,15.2832,25.8,77,53,0.6,CG,1729205760
135,cururupu,-1.8283,-44.8683,24.58,79,12,1.49,BR,1729205709
136,boda,4.3189,17.4695,21.67,94,45,0.96,CF,1729205763
137,tengrela,10.4869,-6.4097,23.24,91,64,1.74,CI,1729205764
138,uba,-21.12,-42.9428,22.8,83,29,1.65,BR,1729205765
139,nangwa,-4.4667,35.45,15.39,76,41,1.79,TZ,1729205766
140,lamu,-2.2717,40.902,25.1,84,100,5.8,KE,1729205767
141,sobral,-3.6861,-40.3497,26.34,67,77,3.04,BR,1729205768
142,odienne,9.51,-7.5692,22.57,93,88,1.89,CI,1729205770
143,gamba,-2.65,10.0,24.75,88,89,2.64,GA,1729205771
144,kampene,-3.6,26.6667,20.23,90,95,0.67,CD,1729205772
145,porto novo,6.4965,2.6036,25.9,90,87,2.1,BJ,1729205654
146,kachia,9.8667,7.95,20.98,91,97,1.02,NG,1729205774
147,chipata,-13.6333,32.65,16.73,73,7,2.17,ZM,1729205775
148,mangai,-4.05,19.5333,22.49,81,67,0.58,CD,1729205776
149,ewo,-0.8725,14.8206,23.96,81,47,0.93,CG,1729205777
150,ati,13.2154,18.3353,31.78,17,9,3.74,TD,1729205778
151,robertsport,6.7533,-11.3686,25.64,85,100,2.79,LR,1729205779
152,ilebo,-4.3167,20.5833,22.21,90,85,0.55,CD,1729205780
153,luis correia,-2.8792,-41.6669,26.17,77,65,5.24,BR,1729205782
154,lisala,2.15,21.5167,22.61,88,100,0.61,CD,1729205783
155,pala,9.3642,14.9046,23.2,81,74,2.01,TD,1729205784
156,argungu,12.7433,4.5269,27.79,65,74,2.92,NG,1729205785
157,impfondo,1.6381,18.0667,25.21,74,88,0.29,CG,1729205786
158,marsabit,2.3284,37.9899,21.31,50,76,5.16,KE,1729205787
159,umm kaddadah,13.6017,26.6876,31.39,23,12,5.19,SD,1729205789
160,benguela,-12.5763,13.4055,22.76,77,81,1.2,AO,1729205790
161,coruripe,-10.1256,-36.1756,24.47,75,46,5.74,BR,1729205791
162,lau,9.2167,11.2833,23.66,93,76,1.95,NG,1729205793
163,bulungu,-4.55,18.6,22.45,81,59,0.19,CD,1729205794
164,gamboula,4.1178,15.1393,20.25,96,78,1.09,CF,1729205795
165,lambarene,-0.7001,10.2406,23.59,97,87,1.47,GA,1729205796
166,kalemie,-5.9475,29.1947,21.59,83,26,2.62,CD,1729205797
167,manga,11.6636,-1.0731,24.76,80,82,3.24,BF,1729205798
168,boali,4.8005,18.1275,22.64,92,82,1.44,CF,1729205799
169,nampula,-15.1165,39.2666,17.97,100,40,3.13,MZ,1729205712
170,camayenne,9.535,-13.6878,27.05,94,75,2.06,GN,1729205801
171,maralal,1.0968,36.698,16.7,67,50,1.36,KE,1729205802
172,aketi,2.7388,23.7833,21.51,98,97,0.49,CD,1729205804
173,buba,11.5833,-15.0,24.92,94,100,1.54,GW,1729205805
174,camacupa,-12.0167,17.4833,18.84,82,95,1.95,AO,1729205807
175,dhalie,13.6957,44.7314,22.49,52,26,0.94,YE,1729205808
176,quibala,-10.7337,14.98,18.0,89,100,0.66,AO,1729205809
177,bati,11.1833,40.0167,19.92,46,72,3.5,ET,1729205810
178,kabanga,-2.6386,30.4678,15.87,91,50,0.92,TZ,1729205811
179,cova figueira,14.8905,-24.2934,20.63,85,8,5.01,CV,1729205812
180,muramvya,-3.2682,29.6079,15.75,90,95,0.66,BI,1729205813
181,nangomba,-10.9,38.5,24.95,67,100,1.9,TZ,1729205815
182,pocao de pedras,-4.6667,-44.85,31.2,43,82,2.03,BR,1729205816
183,obo,5.3998,26.4869,20.23,95,54,0.8,CF,1729205817
184,n'zeto,-7.2312,12.8666,24.6,83,89,4.14,AO,1729205818
185,zorgo,12.2489,-0.6158,26.68,70,66,5.01,BF,1729205819
186,pemba,-12.974,40.5178,24.39,83,20,6.37,MZ,1729205712
187,lugoba,-6.45,38.3333,21.92,83,93,0.65,TZ,1729205821
188,kayes,14.0,-11.0,25.68,80,98,0.85,ML,1729205822
189,vila do maio,15.1333,-23.2167,25.81,87,0,5.95,CV,1729205823
190,bouna,9.2667,-3.0,22.97,94,88,1.24,CI,1729205825
191,kembe,4.6228,21.8865,22.62,91,100,0.67,CF,1729205826
192,quebo,11.3333,-14.9333,24.66,94,100,1.57,GW,1729205827
193,sangmelima,2.9333,11.9833,19.76,100,99,1.18,CM,1729205828
194,gimbi,9.1667,35.8333,12.38,96,54,1.37,ET,1729205829
195,al masallamiyya,14.5748,33.3373,31.03,39,58,3.46,SD,1729205830
196,banyo,6.75,11.8167,19.27,92,99,1.03,CM,1729205831
197,zemio,5.0314,25.1361,21.42,92,100,0.56,CF,1729205832
198,lodja,-3.4833,23.4333,21.44,95,98,0.5,CD,1729205833
199,businga,3.3333,20.8833,22.52,91,95,0.12,CD,1729205834
200,baki,-7.6128,110.7839,23.97,77,98,3.57,ID,1729205836
201,brumado,-14.2036,-41.6653,20.73,90,97,0.66,BR,1729205837
202,butembo,0.15,29.2833,13.93,96,19,0.84,CD,1729205838
203,bouza,14.4229,6.0428,31.56,15,97,2.15,NE,1729205839
204,bogo,11.0517,124.0055,27.6,78,83,0.57,PH,1729205840
205,ar ruseris,11.8659,34.3869,26.71,65,57,2.52,SD,1729205841
206,maneromango,-7.1988,38.7848,21.26,93,83,1.55,TZ,1729205842
207,novo lino,-8.915,-35.6467,21.75,86,58,1.71,BR,1729205843
208,itabaianinha,-11.2739,-37.79,23.0,81,89,3.37,BR,1729205844
209,bafata,12.1667,-14.75,24.67,93,100,1.45,GW,1729205846
210,luena,-11.7833,19.9167,16.72,91,49,1.51,AO,1729205847
211,koulamoutou,-1.1303,12.4736,23.06,96,100,1.23,GA,1729205848
212,itaberaba,-12.5275,-40.3069,25.69,68,98,2.5,BR,1729205850
213,grand-popo,6.2804,1.8225,24.62,88,72,2.46,BJ,1729205851
214,grand-lahou,5.1367,-5.0242,24.47,90,98,2.48,CI,1729205852
215,belel,7.05,14.4333,16.44,94,100,1.03,CM,1729205853
216,baidoa,3.1138,43.6498,22.09,83,100,3.97,SO,1729205854
217,santo antonio,-6.3106,-35.4789,23.54,83,64,3.26,BR,1729205856
218,bako,5.7833,36.5667,16.35,93,57,1.51,ET,1729205857
219,kaoma,-14.7833,24.8,19.32,50,3,2.19,ZM,1729205858
220,mayuge,0.4597,33.4803,17.6,92,51,1.49,UG,1729205859
221,bukama,-9.2,25.85,21.16,91,90,1.27,CD,1729205860
222,barreirinhas,-2.7469,-42.8264,24.62,80,51,3.3,BR,1729205673
223,aneho,6.2333,1.6,24.58,88,76,2.38,TG,1729205862
224,takoradi,4.8845,-1.7554,24.44,90,100,2.48,GH,1729205863
225,twon-brass,4.3151,6.2418,26.42,80,27,3.96,NG,1729205864
226,salinopolis,-0.6136,-47.3561,26.43,80,41,6.35,BR,1729205865
227,zalingei,12.9096,23.4741,24.58,58,100,0.93,SD,1729205867
228,kukawa,12.9234,13.5606,27.53,44,44,0.1,NG,1729205868
229,kabinda,-6.1333,24.4833,19.3,88,94,1.72,CD,1729205869
230,buta,2.7858,24.73,21.01,99,97,0.58,CD,1729205870
231,mlowo,-9.0,32.9833,17.64,84,80,1.46,TZ,1729205871
232,teshi old town,5.5836,-0.1072,25.31,94,100,2.57,GH,1729205872
233,bentiu,9.2333,29.8333,22.47,89,30,0.7,SS,1729205873
234,paoua,7.2427,16.4406,20.86,97,100,1.45,CF,1729205874
235,nikki,9.9401,3.2108,23.24,89,83,1.98,BJ,1729205875
236,kotido,2.9806,34.1331,20.25,73,14,2.19,UG,1729205876
237,mbandaka,0.0487,18.2603,24.6,75,91,0.62,CD,1729205878
238,gambela,8.25,34.5833,20.67,94,100,0.81,ET,1729205879
239,ajaokuta,7.5623,6.655,23.85,95,85,1.45,NG,1729205880
240,barentu,15.1139,37.5928,26.11,36,43,1.47,ER,1729205881
241,bom jesus,-9.0744,-44.3586,27.07,56,59,1.09,BR,1729205884
242,mandera,3.9366,41.867,27.69,54,79,6.34,KE,1729205885
243,canto do buriti,-8.11,-42.9444,28.25,53,97,0.36,BR,1729205886
244,beledweyne,4.7358,45.2036,25.56,70,97,8.61,SO,1729205887
245,nacala,-14.5428,40.6728,22.24,75,1,3.59,MZ,1729205888
246,gamboma,-1.8764,15.8644,24.19,79,81,1.23,CG,1729205890
247,rumphi,-11.0186,33.8575,18.13,87,42,1.61,MW,1729205891
248,gummi,12.1436,5.1081,26.9,69,99,3.39,NG,1729205892
249,bouafle,6.9904,-5.7442,21.58,99,97,1.34,CI,1729205893
250,savelugu,9.6244,-0.8253,24.21,86,100,2.16,GH,1729205894
251,port-gentil,-0.7193,8.7815,25.98,89,75,4.63,GA,1729205895
252,kapoeta,4.7717,33.5903,24.05,77,83,0.98,SS,1729205897
253,mutuali,-14.8706,37.0044,20.35,59,82,1.25,MZ,1729205898
254,tshikapa,-6.4167,20.8,22.33,87,93,0.64,CD,1729205900
255,daloa,6.8774,-6.4502,21.09,99,99,1.07,CI,1729205901
256,rumbek,6.802,29.6912,22.46,93,88,0.95,SS,1729205902
257,kilifi,-3.6305,39.8499,24.59,90,100,3.99,KE,1729205903
258,kamina,-8.7386,24.9906,18.8,92,97,0.65,CD,1729205904
259,guider,9.9342,13.9486,25.35,71,20,1.79,CM,1729205905
260,ndende,-2.4008,11.3581,22.79,99,71,0.99,GA,1729205906
261,lucapa,-8.4192,20.7447,19.79,91,74,0.75,AO,1729205907
262,hastings,50.8552,0.5729,13.21,50,87,2.93,GB,1729205783
263,tonj,7.2737,28.6822,22.94,90,71,0.52,SS,1729205910
264,bol,13.4586,14.7147,28.73,56,44,2.63,TD,1729205911
265,madimba,-10.4,40.3333,23.53,88,49,3.75,TZ,1729205912
266,usevia,-7.1,31.2333,24.6,61,93,0.88,TZ,1729205913
267,soio,-6.1349,12.3689,24.87,85,52,4.14,AO,1729205914
268,xuddur,4.1213,43.8894,22.75,80,97,5.78,SO,1729205916
269,kikwit,-5.041,18.8162,22.62,80,72,0.23,CD,1729205917
270,salima,-13.7804,34.4587,22.22,62,53,1.96,MW,1729205918
271,bousso,10.4795,16.7117,25.01,74,20,2.35,TD,1729205920
272,nola,40.922,14.5329,24.25,51,99,0.9,IT,1729205921
273,adre,13.4667,22.2,26.47,55,62,2.36,TD,1729205922
274,independencia,-5.3964,-40.3086,30.5,41,78,2.44,BR,1729205923
275,saacow,1.6279,42.4407,24.47,76,80,3.23,SO,1729205924
276,mandimba,-14.3548,35.6515,19.65,59,81,1.0,MZ,1729205925
277,djibouti,11.5,42.5,26.64,65,47,4.11,DJ,1729205747
278,alindao,5.0267,21.2088,22.46,94,98,0.55,CF,1729205927
279,potiskum,11.7091,11.0694,27.08,56,99,2.22,NG,1729205928
280,al kawa,13.7463,32.4996,32.25,34,28,4.28,SD,1729205929
281,nguti,5.3299,9.4185,22.47,98,99,0.35,CM,1729205931
282,bankim,6.083,11.4905,20.17,97,92,0.58,CM,1729205932
283,barclayville,4.6797,-8.2339,24.1,92,100,1.5,LR,1729205933
284,babana,10.4295,3.815,24.15,88,62,2.08,NG,1729205934
285,barra da estiva,-13.6261,-41.3269,19.24,90,100,2.04,BR,1729205936
286,isiro,2.7739,27.616,18.82,99,69,0.46,CD,1729205937
287,kasongo-lunda,-6.4667,16.8167,21.21,96,96,0.82,CD,1729205938
288,dembi dolo,8.5333,34.8,13.52,93,100,1.82,ET,1729205787
289,chela,34.069,104.4619,4.93,68,59,0.96,CN,1729205941
290,bamusso,4.4591,8.9027,24.95,88,100,0.85,CM,1729205942
291,farim,12.4839,-15.2217,24.65,93,76,1.98,GW,1729205943
292,nouna,12.7333,-3.8667,27.55,62,100,3.45,BF,1729205944
293,bossangoa,6.4926,17.4552,22.2,95,66,1.08,CF,1729205945
294,mbala,-8.8402,31.3659,17.8,80,62,1.53,ZM,1729205946
295,makokou,0.5738,12.8642,21.24,98,98,1.2,GA,1729205947
296,boke,10.9409,-14.2967,24.2,96,99,0.78,GN,1729205948
297,macenta,8.5435,-9.471,20.64,97,88,0.16,GN,1729205950
298,lilongwe,-13.9669,33.7873,18.3,72,47,0.98,MW,1729205951
299,narok,-1.0783,35.8601,15.76,78,89,0.68,KE,1729205952
300,buriti bravo,-5.8372,-43.8336,26.67,59,61,1.22,BR,1729205953
301,youkounkoun,12.5333,-13.1333,25.55,87,100,0.38,GN,1729205954
302,leer,53.2316,7.461,13.3,94,99,0.6,DE,1729205955
303,wad medani,14.4012,33.5199,30.78,41,37,3.47,SD,1729205956
304,malanje,-9.5402,16.341,18.98,87,99,1.8,AO,1729205957
305,garoua boulai,5.8833,14.55,18.6,94,95,0.75,CM,1729205958
306,al fulah,11.7329,28.3579,29.8,48,73,2.7,SD,1729205959
307,lundazi,-12.2929,33.1782,19.47,66,66,3.07,ZM,1729205961
308,mao,39.8885,4.2658,18.31,72,20,5.14,ES,1729205962
309,banikoara,11.2985,2.4386,24.88,82,98,2.45,BJ,1729205963
310,kaliua,-5.0606,31.7936,21.51,70,31,1.94,TZ,1729205964
311,mto wa mbu,-3.35,35.85,22.58,65,81,1.73,TZ,1729205965
312,kabalo,-6.05,26.9167,21.4,96,100,1.33,CD,1729205966
313,bouar,5.934,15.596,18.79,94,97,1.22,CF,1729205967
314,tchollire,8.4022,14.1698,22.54,86,98,1.17,CM,1729205968
315,mamou,10.5,-12.0,20.64,96,94,0.85,GN,1729205969
316,wamba,8.9333,8.6,22.27,92,97,0.74,NG,1729205970
317,kamakwie,9.5,-12.2333,23.58,94,100,0.91,SL,1729205972
318,pastos bons,-6.6017,-44.0767,25.0,65,53,0.85,BR,1729205973
319,kindu,-2.95,25.95,20.76,99,82,0.5,CD,1729205974
320,barra,-11.0894,-43.1417,24.76,78,94,1.89,BR,1729205975
321,mgandu,-5.95,34.1333,19.24,62,44,1.65,TZ,1729205976
322,sangueya,10.7,-14.3667,24.02,96,95,1.08,GN,1729205977
323,illushi,6.6667,6.6308,23.31,97,78,1.52,NG,1729205978
324,dhamar,14.5427,44.4051,12.96,43,79,3.34,YE,1729205979
325,catumbela,-12.4314,13.5472,22.8,77,89,0.82,AO,1729205980
326,macaubas,-13.0194,-42.6986,21.21,84,97,0.48,BR,1729205981
327,abu zabad,12.35,29.25,28.26,53,78,2.96,SD,1729205983
328,cotonou,6.3654,2.4183,25.99,83,40,4.12,BJ,1729205710
329,uacu cungo,-11.3634,15.1208,17.16,88,99,0.24,AO,1729205985
330,ndjole,-0.1783,10.7649,23.77,98,100,1.17,GA,1729205986
331,ejura,7.3856,-1.3562,22.45,96,97,1.43,GH,1729205987
332,macau,22.2006,113.5461,27.62,83,40,5.66,MO,1729205988
333,chanika,-5.4167,38.0167,19.85,94,53,1.73,TZ,1729205989
334,sao tome,0.3365,6.7273,25.63,78,26,2.48,ST,1729205990
335,lauro de freitas,-12.8944,-38.3272,26.01,78,75,6.69,BR,1729205990
336,urucui,-7.2294,-44.5561,26.32,66,91,1.64,BR,1729205992
337,chato,-2.6378,31.7669,20.9,69,57,1.87,TZ,1729205994
338,akobo,7.4344,3.9497,24.75,94,20,3.09,NG,1729205995
339,kano,12.0001,8.5167,24.94,73,0,3.09,NG,1729205996
340,campo maior,-4.8278,-42.1686,28.24,56,61,3.05,BR,1729205997
341,degema hulk,4.7625,6.752,24.34,90,79,1.9,NG,1729205998
342,tanout,14.9709,8.8879,30.85,15,22,3.43,NE,1729205999
343,patigi,8.7333,5.75,24.93,87,94,1.68,NG,1729206000
344,sao joao do piaui,-8.3581,-42.2467,30.1,45,98,1.51,BR,1729206002
345,lagos,6.5833,3.75,24.1,90,98,1.54,NG,1729205675
346,patos,-7.0244,-37.28,29.19,48,85,4.51,BR,1729205881
347,el fasher,13.6279,25.3494,29.41,25,26,3.86,SD,1729206007
348,massenya,11.4039,16.1705,27.59,60,58,2.69,TD,1729206008
349,lekki,6.3607,4.8333,23.57,95,99,0.97,NG,1729206009
350,dapaong,10.8639,0.205,24.58,77,100,2.47,TG,1729206010
351,maposeni,-10.5833,35.4,20.87,71,95,0.61,TZ,1729206011
352,mahenge,-8.6833,36.7167,17.94,82,52,0.83,TZ,1729206012
353,mbaiki,3.8678,17.9892,21.96,93,81,0.94,CF,1729206014
354,gemena,3.25,19.7667,22.67,90,99,0.72,CD,1729206015
355,serrinha,-11.6642,-39.0075,23.41,78,99,4.47,BR,1729206016
356,atakpame,7.5333,1.1333,21.13,98,91,1.18,TG,1729206017
357,mpigi,0.225,32.3136,20.45,97,61,1.29,UG,1729206018
358,obudu,6.6674,9.1716,23.54,96,100,1.31,NG,1729206019
359,bandundu,-3.3167,17.3667,23.7,84,39,1.86,CD,1729206020
360,yabelo,4.8833,38.0833,16.17,80,98,0.19,ET,1729206021
361,simplicio mendes,-7.8539,-41.9103,28.06,50,94,1.47,BR,1729206022
362,palmas de monte alto,-14.2672,-43.1619,21.9,83,97,1.06,BR,1729206024
363,kibuye,-2.0597,29.3482,18.87,83,81,0.86,RW,1729206025
364,ntungamo,-0.8833,29.65,18.19,95,56,0.75,UG,1729206026
365,lubao,14.9167,120.55,26.84,84,70,1.54,PH,1729206027
366,meiganga,6.5167,14.3,19.39,94,100,1.07,CM,1729206028
367,barah,13.7,30.3667,31.21,25,12,3.66,SD,1729206029
368,cabinda,-5.55,12.2,26.08,89,40,1.54,AO,1729206031
369,guelendeng,10.9176,15.5501,26.44,62,24,2.95,TD,1729206032
370,paramirim,-13.4425,-42.2389,21.53,89,100,1.2,BR,1729206033
371,kuacjok,8.3002,27.9903,23.58,80,10,0.65,SS,1729206034
372,nasir,15.5894,32.5634,34.53,15,80,6.93,SD,1729206035
373,korhogo,9.45,-5.6333,23.4,89,97,1.23,CI,1729206036
374,ouricuri,-7.8825,-40.0817,25.92,60,69,1.45,BR,1729206037
375,bajil,15.0584,43.2851,30.7,61,25,1.4,YE,1729206038
376,biltine,14.5333,20.9167,30.2,18,30,2.04,TD,1729206040
377,kurmuk,10.55,34.2833,21.36,91,86,1.73,SD,1729206041
378,barma,8.35,-11.3333,21.64,99,69,0.26,SL,1729206042
379,kani keli,-12.9536,45.1033,24.59,77,30,4.33,YT,1729206043
380,thies,14.8342,-17.1061,26.36,100,20,2.57,SN,1729206044
381,mtambile,-5.3833,39.7,25.27,79,100,4.63,TZ,1729206045
382,chake chake,-5.2459,39.7666,24.6,82,100,3.46,TZ,1729206046
383,vwawa,-9.1167,32.9333,17.62,84,84,1.2,TZ,1729206047
384,tingi,-11.3,35.0333,18.44,75,90,0.82,TZ,1729206048
385,machakos,-1.5167,37.2667,16.26,83,93,1.09,KE,1729205762
386,ikot ekpene,5.1794,7.7108,23.06,96,100,1.59,NG,1729206051
387,buchanan,5.8808,-10.0467,24.75,91,100,2.3,LR,1729206052
388,ad-damazin,11.7891,34.3592,26.65,65,50,2.38,SD,1729206053
389,dejen,10.1667,38.1333,12.32,75,60,0.32,ET,1729206054
390,byumba,-1.5763,30.0675,13.85,84,83,0.77,RW,1729206055
391,kita,13.0349,-9.4895,25.68,75,82,1.04,ML,1729206056
392,mariakani,-3.8633,39.4736,22.15,98,100,2.04,KE,1729206057
393,tougue,11.4667,-11.6,20.31,92,98,0.07,GN,1729206058
394,nchelenge,-9.3451,28.734,22.62,78,96,1.28,ZM,1729206059
395,makurdi,7.7411,8.5121,24.52,87,100,1.5,NG,1729206060
396,tororo,0.693,34.1809,18.17,87,61,0.43,UG,1729206062
397,pointe-noire,-4.7761,11.8635,24.96,89,28,1.28,CG,1729206063
398,dunda,-8.1167,34.25,19.64,74,85,1.38,TZ,1729206064
399,fomboni,-12.28,43.7425,25.44,79,32,5.96,KM,1729206065
400,caconda,-13.7333,15.0667,20.49,56,100,1.53,AO,1729206066
401,ar rahad,12.7167,30.65,28.01,53,4,3.06,SD,1729206067
402,kribi,2.95,9.9167,25.11,88,100,2.28,CM,1729206068
403,kinana,14.0361,33.1712,30.8,40,29,3.59,SD,1729206069
404,missao velha,-7.2497,-39.1431,30.27,51,20,1.03,BR,1729206071
405,umuahia,5.5263,7.4896,22.46,97,100,1.74,NG,1729206072
406,bondo,3.8146,23.6866,20.24,88,86,0.57,CD,1729206073
407,agbabu,6.5886,4.8343,23.14,97,100,0.67,NG,1729206074
408,novo oriente,-5.5344,-40.7742,28.16,47,59,0.34,BR,1729206075
409,dire dawa,9.5931,41.8661,23.74,45,60,0.9,ET,1729206076
410,bonny,4.4522,7.1681,26.04,81,73,3.05,NG,1729206078
411,lusambo,-4.9667,23.45,21.27,97,99,0.62,CD,1729206079
412,flores,16.9226,-89.8994,24.4,98,53,1.38,GT,1729206080
413,yeed,4.55,43.0333,26.38,61,55,6.31,SO,1729206081
414,massaguet,12.4755,15.4365,29.36,42,73,3.05,TD,1729206083
415,bedele,8.456,36.353,11.67,96,52,1.23,ET,1729206085
416,mugumu,-1.85,34.7,18.1,82,79,0.92,TZ,1729206087
417,homa bay,-0.5273,34.4571,19.58,79,88,1.71,KE,1729206088
418,iguai,-14.7564,-40.0892,21.64,95,100,2.26,BR,1729206089
419,basoko,1.2391,23.616,22.05,95,88,0.41,CD,1729206091
420,kansanshi,-12.0951,26.4273,17.34,77,94,0.86,ZM,1729206092
421,sade,11.3595,10.6732,26.16,59,96,2.61,NG,1729206094
422,goz beida,13.95,20.55,30.57,19,17,2.74,TD,1729206095
423,bishoftu,8.75,38.9833,14.01,71,99,2.39,ET,1729206097
424,yei,4.095,30.6779,19.08,97,34,1.42,SS,1729206099
425,kasongo,-4.45,26.6667,21.05,90,95,0.37,CD,1729206101
426,bitkine,11.9801,18.2138,28.62,50,14,1.8,TD,1729206102
427,jeremoabo,-10.075,-38.4808,23.55,80,100,4.52,BR,1729206103
428,ippy,6.2679,21.2247,20.72,90,100,1.62,CF,1729206104
429,salvador,13.8333,-88.9167,27.02,91,51,1.15,SV,1729205476
430,kipushi,-11.7667,27.2333,20.24,69,97,1.29,CD,1729206106
431,mutum biyu,8.6333,10.7667,23.31,94,97,1.95,NG,1729206107
432,mufulira,-12.5498,28.2407,19.27,58,65,1.93,ZM,1729206108
433,sao desiderio,-12.3633,-44.9733,22.89,86,100,1.09,BR,1729206109
434,aden,12.7794,45.0367,30.11,63,11,1.39,YE,1729206111
435,masindi,1.6744,31.715,17.66,96,25,0.96,UG,1729206112
436,mouila,-1.8685,11.0559,23.51,98,63,0.71,GA,1729206113
437,aracati,-4.5617,-37.7697,25.03,78,13,5.12,BR,1729206081
438,itamaraca,-7.7478,-34.8256,24.8,76,24,4.35,BR,1729206115
439,kongoussi,13.3258,-1.5347,30.25,40,56,4.98,BF,1729206116
440,ilheus,-14.7889,-39.0494,24.9,100,75,1.03,BR,1729206066
441,kirando,-7.4167,30.6,24.71,72,26,1.81,TZ,1729206118
442,njombe,-9.3333,34.7667,12.61,97,69,1.43,TZ,1729206120
443,mikomeseng,2.1361,10.6132,21.13,100,100,1.06,GQ,1729206121
444,tokonou,9.65,-9.7833,21.3,94,71,1.1,GN,1729206122
445,koutiala,12.3917,-5.4642,26.41,61,100,4.2,ML,1729206123
446,libreville,0.3925,9.4537,27.01,89,75,3.6,GA,1729206074
447,franceville,-1.6333,13.5836,22.94,87,72,0.65,GA,1729206125
448,tenenkou,14.4572,-4.9169,31.79,39,100,2.81,ML,1729206126
449,maceio,-9.6658,-35.7353,24.69,88,20,3.09,BR,1729206016
450,nguigmi,14.2495,13.1092,29.81,27,13,0.74,NE,1729206129
451,maridi,4.9158,29.4742,19.68,96,16,1.41,SS,1729206130
452,al hudaydah,14.7978,42.9545,30.55,67,53,3.23,YE,1729206131
453,malakal,9.5334,31.6605,23.26,87,24,1.48,SS,1729206132
454,ngambe,4.2333,10.6167,20.25,100,99,0.92,CM,1729206133
455,hola,51.5377,23.1902,5.42,62,2,4.64,PL,1729206134
456,adi keyh,14.8444,39.3772,16.03,34,49,1.63,ER,1729206135
457,garbahaarrey,3.3289,42.2209,25.27,67,97,7.56,SO,1729206136
458,debark',13.1561,37.8981,11.09,65,87,1.09,ET,1729206137
459,itaueira,-7.6033,-43.0256,28.76,53,94,1.53,BR,1729206138
460,niamey,13.5137,2.1098,32.16,48,100,2.06,NE,1729206140
461,kananga,-5.8958,22.4178,20.01,96,92,0.59,CD,1729206141
462,faranah,10.0404,-10.7434,22.01,93,88,1.01,GN,1729206142
463,moyamba,8.1667,-12.4333,23.01,97,78,0.81,SL,1729206143
464,uaua,-9.8414,-39.4817,28.43,52,93,4.21,BR,1729206144
465,aquiraz,-3.9014,-38.3911,27.8,77,26,4.4,BR,1729206145
466,kaele,10.1092,14.4508,24.96,74,11,2.22,CM,1729206147
467,mumbwa,-14.9783,27.0619,18.72,58,1,2.02,ZM,1729206148
468,zuenoula,7.4292,-6.0431,21.72,97,93,1.5,CI,1729206149
469,kassala,15.451,36.4,30.34,30,71,2.81,SD,1729206151
470,morogoro,-6.8167,37.6667,21.71,86,34,0.68,TZ,1729206153
471,juba,4.8517,31.5825,22.82,89,86,1.06,SS,1729206154
472,baoro,5.6667,15.9667,20.3,93,97,0.79,CF,1729206155
473,kibale,0.8,31.0667,15.19,98,85,0.59,UG,1729206156
474,sumbe,-11.2061,13.8437,23.71,77,97,2.5,AO,1729206157
475,riachao das neves,-11.7461,-44.91,23.44,84,100,1.6,BR,1729206159
476,galappo,-4.2667,35.85,18.84,72,64,1.63,TZ,1729206160
477,pallisa,1.145,33.7094,18.51,92,71,0.71,UG,1729206161
478,mocimboa,-11.3167,40.35,23.91,85,97,4.55,MZ,1729206162
479,mpika,-11.8343,31.4529,15.62,82,44,2.69,ZM,1729206163
480,belem de sao francisco,-8.7539,-38.9658,30.22,45,85,5.07,BR,1729206164
481,goba,7.0167,39.9833,10.07,78,86,2.17,ET,1729206076
482,illela,13.7292,5.2975,31.24,31,100,2.69,NG,1729206166
483,kongolo,-5.3833,27.0,21.54,96,98,0.84,CD,1729206167
484,kolokani,13.5728,-8.0339,26.58,63,79,2.47,ML,1729206168
485,mchinji,-13.7984,32.8802,15.72,76,10,1.31,MW,1729206170
486,mermoz boabab,14.7065,-17.4758,26.88,89,0,2.06,SN,1729206171
487,ndele,8.4109,20.6473,22.94,90,100,0.67,CF,1729206172
488,mwinilunga,-11.7358,24.4293,16.86,91,69,1.03,ZM,1729206173
489,kedougou,12.5579,-12.1743,23.32,94,40,5.14,SN,1729206174
490,kaffrine,14.1059,-15.5508,27.28,76,85,0.66,SN,1729206175
491,likasi,-10.9814,26.7333,18.78,89,94,1.08,CD,1729206176
492,caxito,-8.5785,13.6643,24.37,79,94,2.29,AO,1729206177
493,binkolo,8.9533,-11.9779,22.66,98,87,1.28,SL,1729206178
494,kericho,-0.3677,35.2831,13.71,94,86,1.08,KE,1729206179
495,burumburum,11.3911,8.7234,24.36,62,100,2.92,NG,1729206181
496,ad douiem,14.0012,32.3116,32.31,34,57,4.4,SD,1729206182
497,berbera,10.4396,45.0143,30.69,55,32,1.46,SO,1729206183
498,lichinga,-13.3128,35.2406,15.98,71,74,1.32,MZ,1729206184
499,bangassou,4.7413,22.8184,20.13,95,100,0.36,CF,1729206185
500,betare oya,5.6,14.0833,20.27,95,100,1.12,CM,1729206186
501,kisangani,0.5167,25.2,21.56,99,65,0.2,CD,1729206187
502,mafinga,-7.25,35.0667,23.42,59,85,2.18,TZ,1729206188
503,adzope,6.1069,-3.8619,21.95,99,100,0.89,CI,1729206189
504,gorom-gorom,14.4439,-0.2361,32.89,18,47,3.78,BF,1729206190
505,umm ruwaba,12.9061,31.2158,29.02,50,2,3.47,SD,1729206192
506,damasak,13.0977,12.4952,29.07,35,87,1.91,NG,1729206193
507,kutum,14.2,24.6667,26.13,30,28,3.66,SD,1729206195
508,rujewa,-8.7,34.3833,20.62,69,72,2.77,TZ,1729206196
509,ke-macina,13.9623,-5.3572,31.22,42,97,3.57,ML,1729206197
510,kaga bandoro,6.9896,19.1874,22.51,93,100,0.18,CF,1729206198
511,jitauna,-14.0189,-39.8889,22.07,100,99,0.93,BR,1729206199
512,inda silase,14.1031,38.2829,17.26,45,90,1.99,ET,1729206200
513,mundri,-6.9558,111.71,25.42,65,100,1.99,ID,1729206201
514,nguekhokh,14.5128,-17.005,26.49,100,20,2.57,SN,1729206203
515,adigrat,14.277,39.462,13.12,53,41,1.35,ET,1729206204
516,gagnoa,6.1293,-5.9437,20.57,99,100,0.39,CI,1729206205
517,luzilandia,-3.4578,-42.3703,25.04,75,59,3.78,BR,1729206206
518,massakory,12.996,15.7293,28.85,44,48,3.71,TD,1729206207
519,gunjur,13.2019,-16.7339,26.04,89,75,1.03,GM,1729206208
520,modakeke,7.3833,4.2667,21.65,99,99,0.92,NG,1729206209
521,filingue,14.3521,3.3168,31.86,35,100,3.85,NE,1729206210
522,sinfra,6.6167,-5.9167,21.02,99,100,0.94,CI,1729206073
523,maua,-23.6678,-46.4614,20.0,88,21,3.34,BR,1729206213
524,monte alegre,-2.0078,-54.0692,28.72,57,45,1.41,BR,1729206112
525,were ilu,10.6,39.4333,9.89,72,76,2.22,ET,1729206215
526,lubango,-14.9172,13.4925,18.92,63,77,1.03,AO,1729206216
527,watsa,3.0372,29.5355,17.69,98,66,0.69,CD,1729206217
528,ferkessedougou,9.6,-5.2,23.85,89,93,0.99,CI,1729206218
529,bata,1.8639,9.7658,24.37,94,100,3.34,GQ,1729206219
530,valente,-11.4122,-39.4619,24.8,73,100,4.38,BR,1729206220
531,shambu,9.5667,37.1,10.12,87,70,0.57,ET,1729206221
532,mega,4.05,38.3,18.32,62,99,1.18,ET,1729206223
533,lodwar,3.1191,35.5973,28.47,50,33,0.47,KE,1729206198
534,mvomero,-6.25,38.6667,22.27,87,82,1.05,TZ,1729206225
535,magburaka,8.7167,-11.95,22.59,98,69,1.04,SL,1729206226
536,ngozi,-2.9075,29.8306,14.72,92,85,1.13,BI,1729206227
537,grand-bassam,5.2118,-3.7388,25.98,89,100,1.91,CI,1729206228
538,booue,-0.0921,11.9385,22.46,98,98,1.37,GA,1729206229
539,curaca,-8.9903,-39.9094,31.24,41,99,3.85,BR,1729206179
540,lubumbashi,-11.6609,27.4794,20.76,69,89,1.63,CD,1729206120
541,maych'ew,12.7875,39.5422,13.48,55,71,0.37,ET,1729206233
542,entebbe,0.0644,32.4469,21.18,88,20,0.0,UG,1729206234
543,chinsali,-10.5414,32.0816,18.81,75,28,1.98,ZM,1729206235
544,beneditinos,-5.45,-42.3667,27.29,64,79,2.07,BR,1729206237
545,monduli,-3.3,36.45,17.5,80,58,2.78,TZ,1729206238
546,ijebu-ife,6.7784,4.0339,22.86,95,98,0.94,NG,1729206239
547,gore,-46.1028,168.9436,16.3,53,64,1.73,NZ,1729206240
548,abuja,9.0574,7.4898,24.08,89,93,0.18,NG,1729206242
549,oke ila,7.951,4.9883,20.78,99,91,1.7,NG,1729206243
550,ndago,-4.6,34.35,21.67,49,50,1.45,TZ,1729206244
551,kambove,-10.8764,26.5969,18.52,89,98,0.95,CD,1729206245
552,ibiapina,-3.9233,-40.8894,21.84,75,98,3.78,BR,1729206246
553,kolwezi,-10.7148,25.4667,18.3,81,94,1.19,CD,1729206035
554,goure,13.9835,10.2704,32.58,14,100,2.06,NE,1729206248
555,yanda bayo,11.5071,10.7459,26.5,57,93,2.53,NG,1729206249
556,bom conselho,-9.1697,-36.6797,20.0,86,66,4.13,BR,1729206250
557,mendi,-6.1761,143.6513,14.86,97,100,0.37,PG,1729206252
558,lalibela,12.0333,39.0333,14.63,58,86,2.23,ET,1729206253
559,qoryooley,1.7878,44.53,24.62,84,92,4.81,SO,1729206254
560,dourbali,11.8091,15.8632,29.37,48,48,2.52,TD,1729206255
561,gassol,8.5333,10.4667,23.33,94,99,1.95,NG,1729206256
562,ushirombo,-3.4919,31.9639,21.47,67,76,1.26,TZ,1729206257
563,ginir,7.1333,40.7,14.27,69,79,2.79,ET,1729206258
564,badagry,6.4167,2.8833,24.67,88,77,2.9,NG,1729206260
565,kigoma,-4.8769,29.6267,23.97,79,52,4.89,TZ,1729206261
566,koulikoro,14.0,-7.75,28.82,46,73,2.91,ML,1729206262
567,fontem,5.4685,9.8818,19.14,98,99,0.48,CM,1729206263
